!AIVDM,1,1,,B,14`c;d002grD>PH50hr7RVE000SG,0*74
$GPGGA,184906.000,0856.1964,N,07933.3281,W,1,11,0.7,50.8,M,1.3,M,,0000*43
!AIVDM,1,1,,B,34hwN60Oh3rCwib56`qJtbL<0000,0*12
$GPGLL,0856.1964,N,07933.3281,W,184906.000,A,A*4E
$GPGSA,A,3,29,31,01,27,16,32,22,20,14,18,03,,1.4,0.7,1.2*35
!AIVDM,1,1,,B,15TPq@0Oj0rClEv53P9HWVn<283C,0*51
$GPRMC,184906.000,A,0856.1964,N,07933.3281,W,0.30,222.30,300314,,,A*7E
!AIVDO,1,1,,,B39i>1000nTu;gQAlBj:wwS5kP06,0*5D
$GPVTG,222.30,T,,M,0.30,N,0.6,K,A*09
!AIVDM,1,1,,A,35SrP>5P00rCQAL5:KA8<wv:0000,0*5D
!AIVDM,1,1,,A,15NMBi;P00rCfhb58C4sLgv<20SG,0*42
$GPGGA,184926.000,0856.1943,N,07933.3291,W,1,11,0.7,51.2,M,1.3,M,,0000*4E
!AIVDM,1,1,,B,14`a`N001WrD12J4sMnWpV8l2<4`,0*0D
$GPGLL,0856.1943,N,07933.3291,W,184926.000,A,A*48
!AIVDM,1,1,,B,15?P>b0000rCgTH58DU6KpJj0`0>,0*37
$GPGSA,A,3,29,31,01,27,16,32,22,20,14,18,03,,1.4,0.7,1.2*35
$GPRMC,184926.000,A,0856.1943,N,07933.3291,W,0.56,197.86,300314,,,A*78
!AIVDO,1,1,,,B39i>1001FTu;bQAlAMscwe5kP06,0*3E
$GPVTG,197.86,T,,M,0.56,N,1.0,K,A*0E
!AIVDM,1,1,,B,15Bs:H8001JCUE852dB<FP1p2PSe,0*54
$GPGGA,184927.000,0856.1942,N,07933.3292,W,1,11,0.7,51.1,M,1.3,M,,0000*4E
$GPGLL,0856.1942,N,07933.3292,W,184927.000,A,A*4B
!AIVDM,1,1,,B,3DSegB1uh2rCs6b54VuG417b0000,0*7C
$GPGGA,184957.000,0856.1920,N,07933.3308,W,1,10,0.7,50.9,M,1.3,M,,0000*47
!AIVDM,1,1,,B,15QK90?000JCkvP52fOj`Sep0l3r,0*06
$GPGLL,0856.1920,N,07933.3308,W,184957.000,A,A*4A
!AIVDM,1,1,,A,15TPmF5PAsrCjhT539T8rWGj28Q8,0*05
$GPGSA,A,3,29,31,01,27,16,32,22,20,14,18,,,1.4,0.7,1.2*36
!AIVDM,1,1,,A,11aucipP02rD0u056SAIawwj20Rw,0*2D
$GPGSV,3,1,12,32,47,317,42,16,47,206,39,22,40,154,44,31,36,355,34*74
$GPGSV,3,2,12,14,35,065,45,06,19,181,,27,13,188,38,20,09,319,30*72
$GPGSV,3,3,12,29,06,075,43,01,06,277,34,03,06,202,,18,04,146,40*7F
$GPRMC,184957.000,A,0856.1920,N,07933.3308,W,0.09,203.60,300314,,,A*76
$GPGGA,185011.000,0856.1919,N,07933.3311,W,1,10,0.7,50.6,M,1.3,M,,0000*40
$GPGLL,0856.1919,N,07933.3311,W,185011.000,A,A*42
!AIVDM,2,1,6,A,58J>2p42@0D7UKSOCR1A84q<<Dp@Dr1@TlF22216BpM8D4w:0F40CPC@H888,0*23
!AIVDM,2,2,6,A,88888888880,2*22
$GPGSA,A,3,29,31,01,27,16,32,22,20,14,18,,,1.4,0.7,1.2*36
$GPRMC,185011.000,A,0856.1919,N,07933.3311,W,0.05,191.31,300314,,,A*7E
!AIVDO,1,1,,,B39i>10006Tu;PQAl?uoWwUUkP06,0*43
$GPVTG,191.31,T,,M,0.05,N,0.1,K,A*02
!AIVDM,1,1,,A,15AfoT?002rCpob54FmCFP@H2<4C,0*71
!AIVDM,1,1,,B,15ATk20001JCqnl54fmTt1:@0<0l,0*27
!AIVDM,1,1,,B,15>kSB8P00rC``<59josGOvF2@6b,0*64
$GPGGA,185012.000,0856.1919,N,07933.3311,W,1,10,0.7,50.7,M,1.3,M,,0000*42
$GPGLL,0856.1919,N,07933.3311,W,185012.000,A,A*41
$GPGSA,A,3,29,31,01,27,16,32,22,20,14,18,,,1.4,0.7,1.2*36
!AIVDM,1,1,,B,15RovJ0P02rCttP56n@Db?vH26C8,0*56
$GPGSV,3,1,12,32,47,317,41,16,47,206,35,22,40,154,46,31,36,355,40*7A
$GPGSV,3,2,12,14,35,065,45,06,19,181,,27,13,188,31,20,09,319,36*7D
!AIVDM,1,1,,B,803Iu6PF1d=h0a@QAa>E;@30JcCsivKTvtOVq?g7q0`1wwqLD0,4*20
$GPGSV,3,3,12,29,06,075,44,01,06,277,40,03,06,202,,18,04,146,42*79
$GPRMC,185012.000,A,0856.1919,N,07933.3311,W,0.08,58.94,300314,,,A*4B
!AIVDO,1,1,,,B39i>10006Tu;PQAl?tTowV5kP06,0*22
$GPVTG,58.94,T,,M,0.08,N,0.1,K,A*34
!AIVDM,1,1,,B,3E>o=b?P2KJB;NP5FMrmAwv80000,0*3F
!AIVDM,1,1,,A,15D>NJ0000rCoub53sq5tPRF2D3v,0*27
!AIVDM,1,1,,B,14hwN60Oh1rCwh`56`tK>02H00Rs,0*26
!AIVDM,1,1,,A,35@Cc`0001rCP585:OBenrjF001S,0*78
!AIVDM,1,1,,A,18157t0OhSrCv?B53PHt;bnJ00Sb,0*30
$GPGGA,185013.000,0856.1919,N,07933.3311,W,1,10,0.7,50.7,M,1.3,M,,0000*43
$GPGLL,0856.1919,N,07933.3311,W,185013.000,A,A*40
!AIVDM,1,1,,B,1000Fo@P01rCuDL56cMMegvH0@7E,0*0E
$GPGSA,A,3,29,31,01,27,16,32,22,20,14,18,,,1.4,0.7,1.2*36
$GPRMC,185013.000,A,0856.1919,N,07933.3311,W,0.14,47.01,300314,,,A*45
!AIVDO,1,1,,,B39i>1000FTu;PQAl?tMKwVUkP06,0*0F
$GPVTG,47.01,T,,M,0.14,N,0.3,K,A*39
!AIVDM,1,1,,B,15`OGN?01lrDhFP51=hdS:2J287a,0*65
$GPGGA,185014.000,0856.1919,N,07933.3311,W,1,10,0.7,50.7,M,1.3,M,,0000*44
$GPGLL,0856.1919,N,07933.3311,W,185014.000,A,A*47
$GPGSA,A,3,29,31,01,27,16,32,22,20,14,18,,,1.4,0.7,1.2*36
$GPRMC,185014.000,A,0856.1919,N,07933.3311,W,0.22,46.57,300314,,,A*45
!AIVDO,1,1,,,B39i>1000VTu;PQAl?tM7wW5kP06,0*02
$GPVTG,46.57,T,,M,0.22,N,0.4,K,A*39
!AIVDM,1,1,,B,109t5aW000rCi@v57foqoP4L2H8;,0*70
!AIVDM,1,1,,A,A03IupkAC4:dH0v9WJhP1cF6nud@NrP5wH5T,0*23
!AIVDM,1,1,,A,15R=@2:P01rCTfL52hhJmgvL20SV,0*61
!AIVDM,1,1,,B,15QDvN0P00rC`Rf59jOQlOvJ2H8D,0*68
$GPGGA,185015.000,0856.1920,N,07933.3310,W,1,10,0.7,50.7,M,1.3,M,,0000*4E
!AIVDM,1,1,,B,35AbuT1P01rD1at55VqDWwvL0000,0*2A
$GPGLL,0856.1920,N,07933.3310,W,185015.000,A,A*4D
$GPGSA,A,3,29,31,01,27,16,32,22,20,14,18,,,1.4,0.7,1.2*36
$GPRMC,185015.000,A,0856.1920,N,07933.3310,W,0.32,55.81,300314,,,A*47
!AIVDO,1,1,,,B39i>1000nTu;Q1Al@0RswWUkP06,0*5B
$GPVTG,55.81,T,,M,0.32,N,0.6,K,A*33
!AIVDM,1,1,,B,15?Jc<0004rCswh537mTlVLL088b,0*32
!AIVDM,1,1,,A,15TPq@0PB1rCkS:53HqHeVlN2<4L,0*27
!AIVDM,1,1,,A,15?P>b0000rCgTd58DU6KpJL0PRR,0*00
!AIVDM,1,1,,A,15TPmF5OisrCjR8537v8woNN2H8k,0*12
!AIVDM,1,1,,A,14`a`N001VrD0jt4sHdWm68P2@8v,0*40
!AIVDM,1,1,,A,15NQaV?P01rCu1456IlbTOvP2<4a,0*07
!AIVDM,1,1,,B,H5>gpV0@tp60hT<60T000000000,2*35
$GPGGA,185016.000,0856.1920,N,07933.3310,W,1,10,0.7,50.7,M,1.3,M,,0000*4D
$GPGLL,0856.1920,N,07933.3310,W,185016.000,A,A*4E
!AIVDM,1,1,,B,3E>o=b?P2KJB;NP5FMrmAwv80000,0*3F
$GPGSA,A,3,29,31,01,27,16,32,22,20,14,18,,,1.4,0.7,1.2*36
$GPRMC,185016.000,A,0856.1920,N,07933.3310,W,0.34,57.91,300314,,,A*41
!AIVDO,1,1,,,B39i>1000nTu;Q1Al@0T?w`5kP06,0*46
$GPVTG,57.91,T,,M,0.34,N,0.6,K,A*36
!AIVDM,1,1,,B,13aA<h0028rD:D051Tbv200R0H9?,0*7B
!AIVDM,1,1,,B,15QDCP0P?w<tSF0l4Q@>4?wp00Rk,0*20
!AIVDM,1,1,,A,15Bs:H8001JCUDh52dD<FP1p2PT;,0*59
!AIVDM,2,1,7,B,55@Cc`42AgeuADNU1410E5DDpT0000000000000l1p<755H<0<Q2@@S3h000,0*5A
!AIVDM,2,2,7,B,00000000000,2*20
!AIVDM,2,1,8,B,5C=7Wv02<o<WTP8sL010u9B0E=@u8Th000000016D@LE;4vjNMhlRDm3hPC0,0*11
!AIVDM,2,2,8,B,00000000000,2*2F
!AIVDM,1,1,,A,15QdFT?P04rCui<54lID@gvN00RH,0*1A
!AIVDM,1,1,,B,35T;Uv1001rD>KT54o0LCSVP2Dnb,0*06
!AIVDM,1,1,,A,35RK:b1000rCqh@540@8Q06N0000,0*58
!AIVDM,1,1,,A,1ENQkw0000rB13v5G4hpoQ2F0000,0*01
!AIVDM,2,1,9,B,55ADDF2h=<`0PvoC;OHntr0@T4ltpB18UHE:22165h55<75c07PPC0ShH1F4,0*5F
!AIVDM,2,2,9,B,33ljEQH8880,2*4C
$GPGGA,185017.000,0856.1921,N,07933.3309,W,1,10,0.7,50.7,M,1.3,M,,0000*45
$GPGLL,0856.1921,N,07933.3309,W,185017.000,A,A*46
$GPGSA,A,3,29,31,01,27,16,32,22,20,14,18,,,1.4,0.7,1.2*36
$GPGSV,3,1,12,32,47,317,42,16,47,206,39,22,40,154,46,31,36,355,41*74
$GPGSV,3,2,12,14,35,065,44,06,19,181,,27,13,188,37,20,09,319,37*7B
!AIVDM,1,1,,A,11aucipP02rD0t`56SAaq?vR2@9m,0*34
$GPGSV,3,3,12,29,06,075,43,01,06,277,41,03,06,202,,18,04,146,44*79
!AIVDM,1,1,,A,14`WDl?000JCi:J57nTo8IbR0D0`,0*11
$GPRMC,185017.000,A,0856.1921,N,07933.3309,W,0.40,45.72,300314,,,A*44
!AIVDO,1,1,,,B39i>10016Tu;QQAl@4LWw`UkP06,0*6B
$GPVTG,45.72,T,,M,0.40,N,0.7,K,A*3A
!AIVDM,1,1,,A,39NS<DA001rCsSB52aw5MkpR2Drr,0*3C
!AIVDM,1,1,,B,14`c;d002hrD=rp50Mi7RVDL089u,0*71
!AIVDM,1,1,,B,15QK90?000JCkvf52fR2`Sbv0h9w,0*7F
!AIVDM,1,1,,A,3Ca<Ov5000rBBw`5G?wldb>D0000,0*78
!AIVDM,1,1,,B,15NMBi;P00rCfh<58C3s??vT2D4J,0*45
!AIVDM,1,1,,B,H5>gpV4m71B=9>08@pqjh00P9220,0*12
$GPGGA,185018.000,0856.1922,N,07933.3308,W,1,10,0.7,50.7,M,1.3,M,,0000*48
!AIVDM,1,1,,A,15NK0G0P01rCl6F57Am9jgvR08:>,0*2E
$GPGLL,0856.1922,N,07933.3308,W,185018.000,A,A*4B
$GPGSA,A,3,29,31,01,27,16,32,22,20,14,18,,,1.4,0.7,1.2*36
!AIVDM,1,1,,B,15RcEl001cJCshH4u=u0bPbL0<2B,0*68
$GPGGA,150934.000,0856.1903,N,07933.3326,W,1,09,0.9,27.6,M,1.3,M,,0000*4F
$GPGLL,0856.1903,N,07933.3326,W,150934.000,A,A*4B
$GPGSA,A,3,18,12,25,31,22,24,29,14,21,,,,1.9,0.9,1.6*30
$GPRMC,150934.000,A,0856.1903,N,07933.3326,W,0.39,75.92,310314,,,A*4B
!AIVDO,1,1,,,B39i>1000nTu;I1Al>tgOwi5kP06,0*2E
!AIVDM,1,1,,A,1775gb0000rCaut59P?PB9o405pT,0*44
$GPVTG,75.92,T,,M,0.39,N,0.7,K,A*39
!AIVDM,1,1,,B,35BDU`0PAurCL1L5:oS4sSc400uQ,0*10
!AIVDM,1,1,,A,15R=@2:P00rCplb53r6sU?w625pT,0*23
$GPGGA,150935.000,0856.1904,N,07933.3325,W,1,09,0.9,27.3,M,1.3,M,,0000*4F
$GPGLL,0856.1904,N,07933.3325,W,150935.000,A,A*4E
$GPGSA,A,3,18,12,25,31,22,24,29,14,21,,,,1.8,0.9,1.6*31
!AIVDM,1,1,,B,15>uP00P0grCWsb59gOLG?w420Sa,0*29
$GPGSV,3,1,11,21,64,185,29,18,50,033,45,14,36,313,34,22,34,344,39*78
!AIVDM,1,1,,B,15`OGN?Oh2rCww456Rqa8hO62@DA,0*37
$GPGSV,3,2,11,25,32,133,47,31,26,215,42,12,22,093,48,24,17,034,40*7C
$GPGSV,3,3,11,29,08,164,38,06,04,262,,27,03,271,39*4E
!AIVDM,1,1,,A,15QdFT?P00JCr7454CD2eww40D3H,0*78
$GPRMC,150935.000,A,0856.1904,N,07933.3325,W,0.38,70.19,310314,,,A*49
!AIVDO,1,1,,,B39i>1000nTu;IQAl?0cowiUkP06,0*4F
!AIVDM,1,1,,B,14a1Eb01hErCdBj59;:<Aaw408DJ,0*52
$GPVTG,70.19,T,,M,0.38,N,0.7,K,A*3E
!AIVDM,1,1,,A,34hwN60Oh4rCwjv56`ul<i?60000,0*19
!AIVDM,1,1,,B,109t5aW000rCi@v57fm8Cs=620R>,0*50
!AIVDM,2,1,4,B,A03IupkAC4:dH0N97cep6Oi30EDOw3?v6ASsQ09C4goA03d<vjh2Diooigtd,0*1E
!AIVDM,2,2,4,B,5Op0w1T>wG<0>QKtqh0c,0*21
!AIVDM,1,1,,B,15QDCP0P?w<tSF0l4Q@>4?wp073h,0*45
!AIVDM,1,1,,A,3EU`;h?P1PJCnA053<;e:gvp2000,0*13
!AIVDM,1,1,,A,35TPq@0000rCfV457oNQ?GG625hS,0*67
!AIVDM,1,1,,A,15NQaV?P@LrCdv0591FdV:U82@Dd,0*36
$GPGGA,150936.000,0856.1905,N,07933.3324,W,1,09,0.9,27.0,M,1.3,M,,0000*4F
$GPGLL,0856.1905,N,07933.3324,W,150936.000,A,A*4D
$GPGSA,A,3,18,12,25,31,22,24,29,14,21,,,,1.8,0.9,1.6*31
$GPRMC,150936.000,A,0856.1905,N,07933.3324,W,0.37,67.29,310314,,,A*40
!AIVDO,1,1,,,B39i>1000nTu;J1Al?4b3wj5kP06,0*16
$GPVTG,67.29,T,,M,0.37,N,0.7,K,A*34
!AIVDM,1,1,,B,8H152bPF0P000000000004QFADh000000>hi20000h0,2*5E
!AIVDM,1,1,,B,15D>NJ0000rCp7253rwpU09625pT,0*21
!AIVDM,1,1,,A,15RVtT0P00rCl9>533ES@gw82<1R,0*1A
!AIVDM,2,1,5,B,5INWsv@2>aG<7PmSB20<520M8DLu9V2222222217HA6;E4wG0J@k5PD?T0@S,0*2B
!AIVDM,2,2,5,B,0`888888880,2*72
!AIVDM,1,1,,A,15Bs:H8001JCpnv53qwkTP1p2hEA,0*79
!AIVDM,1,1,,A,15SNCR8P0eJC`B<59cRtU?w625pT,0*45
$GPGGA,150937.000,0856.1905,N,07933.3323,W,1,09,0.9,26.6,M,1.3,M,,0000*4E
$GPGLL,0856.1905,N,07933.3323,W,150937.000,A,A*4B
$GPGSA,A,3,18,12,25,31,22,24,29,14,21,,,,1.8,0.9,1.6*31
!AIVDM,1,1,,B,15QK90?000JD1;D54SlAfh5p0Up@,0*1C
$GPRMC,150937.000,A,0856.1905,N,07933.3323,W,0.41,60.32,310314,,,A*4A
!AIVDO,1,1,,,B39i>10016Tu;JQAl?4UgwjUkP06,0*2C
!AIVDM,1,1,,B,15?Jc<0001rCw8R53jkQg:o808EL,0*7B
$GPVTG,60.32,T,,M,0.41,N,0.8,K,A*37
!AIVDM,1,1,,B,15NMBi;P00rCfi:58C3CN?w:2D4F,0*60
!AIVDM,1,1,,A,11aucipP02rD14R56PU:hww:2<4V,0*79
!AIVDM,1,1,,B,15ANdJ000hrC`8f59dnLFqw600S1,0*09
!AIVDM,1,1,,B,19NWtEP01grDLiD4u<knbUC:20RJ,0*48
!AIVDM,1,1,,B,15Q@a8001mrD4cf4t0aPVPQ:2@Ee,0*4C
!AIVDM,1,1,,A,15S`Op000mrChn457ea=9:a60D4P,0*0F
!AIVDM,1,1,,A,15NK0G0P00rCl4>57AbsCgw:0D33,0*28
$GPGGA,150938.000,0856.1906,N,07933.3322,W,1,09,0.9,26.4,M,1.3,M,,0000*41
$GPGLL,0856.1906,N,07933.3322,W,150938.000,A,A*46
$GPGSA,A,3,18,12,25,31,22,24,29,14,21,,,,1.8,0.9,1.6*31
$GPRMC,150938.000,A,0856.1906,N,07933.3322,W,0.34,57.42,310314,,,A*46
!AIVDO,1,1,,,B39i>1000nTu;K1Al?8Sswk5kP06,0*6B
$GPVTG,57.42,T,,M,0.34,N,0.6,K,A*38
!AIVDM,1,1,,B,34hwN60Oh5rCwk856`uT?AA<019h,0*63
!AIVDM,1,1,,A,19NSAUh01urDE3T4r6OP6P;<0@F?,0*28
!AIVDM,1,1,,A,15EG2t8P00JCoj253UilIgw:05pT,0*24
$GPGGA,150939.000,0856.1907,N,07933.3322,W,1,09,0.9,26.3,M,1.3,M,,0000*46
$GPGLL,0856.1907,N,07933.3322,W,150939.000,A,A*46
$GPGSA,A,3,18,12,25,31,22,24,29,14,21,,,,1.8,0.9,1.6*31
!AIVDM,1,1,,A,14`WDl?001JCi9V57n=qGaK>0<0l,0*1E
$GPRMC,150939.000,A,0856.1907,N,07933.3322,W,0.33,45.77,310314,,,A*44
!AIVDO,1,1,,,B39i>1000nTu;K1Al?<LWwkUkP06,0*34
$GPVTG,45.77,T,,M,0.33,N,0.6,K,A*3A
!AIVDM,1,1,,A,1000000P01rD03256g=`Dgw:08Fc,0*3B
!AIVDM,1,1,,B,17745J1OiarD0`p55Anc@9?>0@Fp,0*4D
!AIVDM,1,1,,A,15>h@F002GrD9f04u`H0I0I<05pT,0*2A
!AIVDM,1,1,,B,1G7Gol0008rB94L5CRMGHmq62000,0*17
$GPGGA,150940.000,0856.1907,N,07933.3321,W,1,09,0.9,26.2,M,1.3,M,,0000*4A
$GPGLL,0856.1907,N,07933.3321,W,150940.000,A,A*4B
!AIVDM,1,1,,B,15B9j>0P00rCvJ852UN:8ww@2@G8,0*08
$GPGSA,A,3,18,12,25,31,22,24,29,14,21,,,,1.8,0.9,1.6*31
$GPGSV,3,1,11,21,64,185,26,18,50,033,46,14,36,313,40,22,34,344,38*76
$GPGSV,3,2,11,25,32,133,46,31,26,215,31,12,22,093,47,24,17,034,41*77
!AIVDM,1,1,,B,3EC3tp?P01rD0wB54BOPhww62000,0*7A
$GPGSV,3,3,11,29,08,164,39,06,04,262,,27,03,271,36*40
!AIVDM,2,1,6,A,5DaOc4000000PwC3W41<lUB084h8t4000000000l28;28000000`<`0@0000,0*5E
!AIVDM,2,2,6,A,00000000000,2*22
$GPRMC,150940.000,A,0856.1907,N,07933.3321,W,0.28,44.74,310314,,,A*41
!AIVDO,1,1,,,B39i>1000VTu;KQAl?<Kwwl5kP06,0*2C
$GPVTG,44.74,T,,M,0.28,N,0.5,K,A*31
!AIVDM,1,1,,B,39NS?B1000rCotr53:oc2PI>0P00,0*53
!AIVDM,1,1,,B,35QJeb0P@hrChM457h@=g07>212P,0*7F
$GPGGA,150941.000,0856.1907,N,07933.3321,W,1,09,0.9,26.2,M,1.3,M,,0000*4B
$GPGLL,0856.1907,N,07933.3321,W,150941.000,A,A*4A
$GPGSA,A,3,18,12,25,31,22,24,29,14,21,,,,1.8,0.9,1.6*31
$GPRMC,150941.000,A,0856.1907,N,07933.3321,W,0.16,357.98,310314,,,A*7E
!AIVDO,1,1,,,B39i>1000FTu;KQAl??OgwlUkP06,0*4B
$GPVTG,357.98,T,,M,0.16,N,0.3,K,A*09
!AIVDM,1,1,,A,403Iupiupwg9`rC9065>=fW00L3T,0*5A
!AIVDM,1,1,,A,15RovJ0P01rCu0`56nMjg?wB20Sk,0*4B
$GPVTG,276.70,T,,M,0.48,N,0.9,K,A*0C
!AIVDM,1,1,,A,15>h@F002GrD:F<4v7I@G@ET0@Mf,0*40
!AIVDM,1,1,,B,15BUvr0P0crC`L659iFopwwT25ph,0*5D
!AIVDM,1,1,,A,35Ba:21000JCs4t54kRP2c?R0000,0*64
!AIVDM,1,1,,A,15AfoT?000rCpun54FjcuK3V25ph,0*61
!AIVDM,1,1,,B,14hwN60P@2rCwpf56a5RJc9V0@N6,0*4E
$GPGGA,151252.000,0856.1905,N,07933.3372,W,1,09,0.9,27.0,M,1.3,M,,0000*44
$GPGLL,0856.1905,N,07933.3372,W,151252.000,A,A*46
!AIVDM,1,1,,B,15>kSB8P00rC`W659jsMGOwV2<2K,0*3B
$GPGSA,A,3,18,12,25,31,22,24,29,14,21,,,,1.8,0.9,1.6*31
!AIVDM,1,1,,A,1EQK90?001JD1;t54SsQfh1p0000,0*00
$GPRMC,151252.000,A,0856.1905,N,07933.3372,W,0.51,277.06,310314,,,A*75
!AIVDO,1,1,,,B39i>1001FTu;21Al?6e;wr5kP06,0*52
$GPVTG,277.06,T,,M,0.51,N,0.9,K,A*04
!AIVDM,1,1,,A,85>uP00F0P000000000002jjjjh000000DE7P7E00h0,2*32
!AIVDM,1,1,,B,1@9t5aW000rCi@r57fmWtc=H2000,0*7E
!AIVDM,1,1,,B,1000Fo@P00rCtB053f4MKwwV00SD,0*39
!AIVDM,1,1,,B,19NS<u0u1ErCFwv5;c5<BqgV08NI,0*57
!AIVDM,1,1,,B,84Skql0F0P000000000004QFAAh000000CjpD0000h0,2*26
!AIVDM,1,1,,B,15TFMB0P0urCRF85:GQ5Gww`0@NR,0*63
$GPGGA,151253.000,0856.1905,N,07933.3373,W,1,09,0.9,27.0,M,1.3,M,,0000*44
!AIVDM,1,1,,B,8INS<u0F0P000000000004hCPjP000000>io20000h0,2*03
$GPGLL,0856.1905,N,07933.3373,W,151253.000,A,A*46
$GPGSA,A,3,18,12,25,31,22,24,29,14,21,,,,1.8,0.9,1.6*31
$GPRMC,151253.000,A,0856.1905,N,07933.3373,W,0.50,276.08,310314,,,A*7B
!AIVDO,1,1,,,B39i>1001FTu;1QAl?6dSwrUkP06,0*38
$GPVTG,276.08,T,,M,0.50,N,0.9,K,A*0A
!AIVDM,1,1,,A,1775gb0000rCaup59P?559ob0HNs,0*60
!AIVDM,1,1,,B,15QJeb000mrCgvN57r`=9ru`25ph,0*62
!AIVDM,1,1,,B,15`OGN?P@2rD06h56RvCCrQb2HO8,0*29
!AIVDM,1,1,,B,15QDvN0P00rC`Qt59jSIe?wb28O@,0*2E
$GPGGA,151254.000,0856.1905,N,07933.3375,W,1,09,0.9,26.9,M,1.3,M,,0000*4D
$GPGLL,0856.1905,N,07933.3375,W,151254.000,A,A*47
$GPGSA,A,3,18,12,25,31,22,24,29,14,21,,,,1.8,0.9,1.6*31
$GPRMC,151254.000,A,0856.1905,N,07933.3375,W,0.43,279.95,310314,,,A*73
!AIVDO,1,1,,,B39i>10016Tu;0QAl?6fwws5kP06,0*0E
$GPVTG,279.95,T,,M,0.43,N,0.8,K,A*02
!AIVDM,1,1,,A,15?P>b0000rCb5L59OK58r7b0Uph,0*64
!AIVDM,2,1,6,B,53JpnJ42<EBSTP7??OHl4E9<f0dt8D000000001?1DVDD4wA0O0PC0Sh@000,0*78
!AIVDM,2,2,6,B,00000000000,2*21
!AIVDM,1,1,,A,B5Rci:00dVTt6r1Aw=7CWwrUoP06,0*15
!AIVDM,1,1,,A,A03IupkAC4:dH0v9:?hP1cF6nud@NrP5wH5T,0*3B
!AIVDM,1,1,,B,14a1Eb0u@@rCcvP59=OLNJ5b08Od,0*24
!AIVDM,1,1,,A,15NQaV?00VrCdgT595C==bad20Sj,0*23
!AIVDM,1,1,,B,13m6ITS000rCBBR5<CpQ<lmb2<30,0*58
!AIVDM,1,1,,A,144FV@?P00rCQU>5:P2ibOwd2@Oi,0*4D
$GPGGA,151255.000,0856.1905,N,07933.3376,W,1,09,0.9,26.8,M,1.3,M,,0000*4E
!AIVDM,1,1,,B,15BDU`001rrCNkp5:`04dked00Rg,0*65
!AIVDM,1,1,,B,15D>NJ0000rCp7253rwpU03d2@Oq,0*16
$GPGLL,0856.1905,N,07933.3376,W,151255.000,A,A*45
$GPGSA,A,3,18,12,25,31,22,24,29,14,21,,,,1.8,0.9,1.6*31
!AIVDM,1,1,,A,15QdFT?P00JCr7h54C@1<?wd0D3F,0*6C
$GPGSV,3,1,10,21,62,184,35,18,51,035,46,14,36,314,37,22,35,345,39*73
!AIVDM,1,1,,B,109t5aW001rCi@v57fmWss=f2HP1,0*2B
$GPGSV,3,2,10,25,33,132,45,31,27,216,40,12,22,091,46,24,16,034,45*77
!AIVDM,1,1,,B,15QDCP0P?w<tSF0l4Q@>4?wp0<3w,0*51
$GPGSV,3,3,10,29,07,163,39,27,03,270,35*7F
$GPRMC,151255.000,A,0856.1905,N,07933.3376,W,0.43,280.79,310314,,,A*75
!AIVDO,1,1,,,B39i>10016Tu;01Al?6gOwsUkP06,0*37
!AIVDM,1,1,,A,15TPq@0001JCfTp57oG1OWIf25ph,0*6E
$GPVTG,280.79,T,,M,0.43,N,0.8,K,A*06
!AIVDM,1,1,,B,85E:BR0F0P0000000000031Eh00000000DE7P3A00h0,2*00
!AIVDM,1,1,,A,15E:BR0P1DrCBb>5<7vLtgwd20SM,0*6F
$GPGGA,151256.000,0856.1906,N,07933.3377,W,1,09,0.9,26.7,M,1.3,M,,0000*40
!AIVDM,1,1,,B,15?Jc<0001rCw7j53jqr>rif0<4P,0*55
$GPGLL,0856.1906,N,07933.3377,W,151256.000,A,A*44
!AIVDM,1,1,,A,33nuv2002;rCe9>4k`:@ThOh21lA,0*53
$GPGSA,A,3,18,12,25,31,22,24,29,14,21,,,,1.8,0.9,1.6*31
$GPRMC,151256.000,A,0856.1906,N,07933.3377,W,0.49,278.86,310314,,,A*79
!AIVDO,1,1,,,B39i>10016Tu:wQAl?:fCwt5kP06,0*77
!AIVDM,1,1,,B,19NWtEP01frDMAt4tmBFaECh2<4p,0*10
$GPVTG,278.86,T,,M,0.49,N,0.9,K,A*0A
!AIVDM,1,1,,B,15>uP00P0brCW3J59oSLPwwf2@Pc,0*2C
!AIVDM,1,1,,B,15NMBi;P00rCfhn58C16:gwh2D4G,0*3D
!AIVDM,1,1,,A,11aucipP01rD11n56PRrRgwh2@Pl,0*56
!AIVDM,1,1,,B,15Rbjb0001rC`T@59jBVWi5d00SP,0*43
!AIVDM,1,1,,A,15RVtT0P00rCl:2533F8tgwh20S<,0*19
!AIVDM,1,1,,B,15QK90?001JD1;`54SuAfh1p0d4h,0*79
$GPGGA,151257.000,0856.1906,N,07933.3379,W,1,09,0.9,26.7,M,1.3,M,,0000*4F
$GPGLL,0856.1906,N,07933.3379,W,151257.000,A,A*4B
!AIVDM,1,1,,B,15Q@a8001krD5S@4tHmP`PSj28Q5,0*71
$GPGSA,A,3,18,12,25,31,22,24,29,14,21,,,,1.8,0.9,1.6*31
!AIVDM,1,1,,A,15SNCR8P0brCWJ459kOdOgwh2@Q7,0*63
$GPRMC,151257.000,A,0856.1906,N,07933.3379,W,0.48,273.11,310314,,,A*72
!AIVDO,1,1,,,B39i>10016Tu:vQAl?:bgwtUkP06,0*36
$GPVTG,273.11,T,,M,0.48,N,0.9,K,A*0E
!AIVDM,1,1,,B,1EBDU`001rrCNkp5:`04dked0000,0*20
!AIVDM,1,1,,A,14`WDl?001JCi:257n;qGaMj0@QH,0*14
!AIVDM,1,1,,B,15>h@F002FrD:GV4v8I0FhEh08QJ,0*0B
!AIVDM,1,1,,B,3ECM>4?P1ArD2KF543M@EOwV2000,0*57
!AIVDM,1,1,,B,13dhq:01iCrCBM05<<B<urIj05ph,0*37
!AIVDM,1,1,,A,1000000P02rD02b56g<4Kgwh0<31,0*42
$GPGGA,151258.000,0856.1906,N,07933.3380,W,1,09,0.9,26.6,M,1.3,M,,0000*47
$GPGLL,0856.1906,N,07933.3380,W,151258.000,A,A*42
!AIVDM,1,1,,A,H5`V5>@Pu0F2222222222222220,2*75
$GPGSA,A,3,18,12,25,31,22,24,29,14,21,,,,1.8,0.9,1.6*31
$GPRMC,151258.000,A,0856.1906,N,07933.3380,W,0.44,274.15,310314,,,A*74
!AIVDO,1,1,,,B39i>10016Tu:v1Al?:cGwu5kP06,0*16
$GPVTG,274.15,T,,M,0.44,N,0.8,K,A*00
!AIVDM,2,1,7,A,5EQEeF0009ceADNTLl0L4l8t400000000000000l1@E636il?;S@CAFH4Q@@,0*29
!AIVDM,2,2,7,A,j0000000008,2*71
00,A,0856.1908,N,07933.3392,W,0.26,282.23,310314,,,A*7C
!AIVDO,1,1,,,B39i>1000VTu:p1Al?BhKwU5kP06,0*2E
$GPVTG,282.23,T,,M,0.26,N,0.5,K,A*05
!AIVDM,1,1,,B,14VNgJ0004rCc=859Ed;dap<00S;,0*71
$GPGGA,151311.000,0856.1909,N,07933.3393,W,1,09,0.9,25.7,M,1.3,M,,0000*44
$GPGLL,0856.1909,N,07933.3393,W,151311.000,A,A*43
!AIVDM,1,1,,B,19NSDhh000rD2ET54:DPkSpD00S1,0*10
$GPGSA,A,3,18,12,25,31,22,24,29,14,21,,,,1.8,0.9,1.6*31
!AIVDM,1,1,,B,85S`Op0F0P0000000000021CQ4P000000>jq00000h0,2*38
$GPRMC,151311.000,A,0856.1909,N,07933.3393,W,0.29,270.47,310314,,,A*7D
!AIVDO,1,1,,,B39i>1000VTu:oQAl?Fa3wUUkP06,0*44
!AIVDM,1,1,,A,15QJeb0OherCg`R582e=;;0d2@=?,0*6B
$GPRMC,151523.000,A,0856.1874,N,07933.3378,W,0.49,112.02,310314,,,A*74
!AIVDO,1,1,,,B39i>10016Tu:w1Al=963wcUkP06,0*41
$GPVTG,112.02,T,,M,0.49,N,0.9,K,A*09
!AIVDM,1,1,,B,803Iu6PF1d=@0a:=ma>fN`4l:T;siwDDvtOm5?g7tm7w081j80,4*1A
!AIVDM,2,1,9,B,A03IupkAC4:dH0N9<=ap6OiE0EDOw5t06ASrsgqC4go:wkd<vjp2DiooIwtd,0*4F
!AIVDM,2,2,9,B,5OoP01T>wF80>QKtth4c,0*10
!AIVDM,1,1,,B,144FV@?P00rCQUB5:P4Q`?vf2<3r,0*66
!AIVDM,1,1,,A,15`OGN?Oh3rD00f56Ro:=bhf2D4F,0*2E
!AIVDM,1,1,,A,376w731000rD;o`54Uh77;4`0000,0*37
$GPGGA,151524.000,0856.1873,N,07933.3377,W,1,09,0.9,33.5,M,1.3,M,,0000*47
CAGv5<OcMA?w620SE,0*5A
!AIVDM,1,1,,B,15NMBi;P01rCfi058C1SOww82@E6,0*37
!AIVDM,1,1,,B,15Q@a8001hJD6cp4tr4hU0Q80@E8,0*74
$GPGGA,151737.000,0856.1869,N,07933.3409,W,1,09,0.9,29.0,M,1.3,M,,0000*4C
$GPGLL,0856.1869,N,07933.3409,W,151737.000,A,A*40
!AIVDM,1,1,,B,15Rbjb0000rC`TT59jE60i760L3w,0*3D
!AIVDM,1,1,,A,35QJeb0OhkrCgHf589w=JK5821rh,0*53
!AIVDM,1,1,,A,11aucipP01rD10D56PNqK?w:28EI,0*39
$GPGSA,A,3,18,12,25,31,22,24,29,14,21,,,,1.8,0.9,1.6*31
$GPRMC,151737.000,A,0856.1869,N,07933.3409,W,0.34,60.80,310314,,,A*4A
!AIVDO,1,1,,,B39i>1000nTu:gQAl<lV3wjUkP06,0*55
!AIVDM,1,1,,A,13AwlL0000JCT7b5:;Vkm9en0h0D,0*40
$GPRMC,152100.000,A,0856.1885,N,07933.3393,W,0.19,199.51,310314,,,A*79
!AIVDO,1,1,,,B39i>1000FTu:oQAl=mtgwP5kP06,0*59
$GPVTG,199.51,T,,M,0.19,N,0.4,K,A*04
!AIVDM,1,1,,A,14hwN60Oh3rCwjl56`mU5hj20<3@,0*01
!AIVDM,1,1,,A,403IupiupwgE0rC9065>=fW00<3l,0*3E
!AIVDM,1,1,,A,403Iu6QupwgE0rCk0d57rwW005qD,0*74
!AIVDM,1,1,,B,15AfoT?002rCpw054FlbBbf02D4>,0*75
!AIVDM,1,1,,A,15RovJ0P03rCtut56nFjC?v225qD,0*4F
!AIVDM,1,1,,A,15ATk20001rCs4l53JjKO@Qn0H0V,0*36
!AIVDM,1,1,,A,1000Fo@P00JCt@r53f7kFgv0080W,0*65
!AIVDM,1,1,,B,B5RVdt00HvTvSjQAVDENCwtUoP06,0*46
$GPGGA,152157.000,0856.1877,N,07933.3414,W,1,09,0.9,17.8,M,1.3,M,,0000*49
$GPGLL,0856.1877,N,07933.3414,W,152157.000,A,A*40
$GPGSA,A,3,18,12,25,31,22,24,29,14,21,,,,1.8,0.9,1.6*31
$GPRMC,152157.000,A,0856.1877,N,07933.3414,W,0.38,56.52,310314,,,A*4C
!AIVDO,1,1,,,B39i>1000nTu:e1Al=DSGwtUkP06,0*71
$GPVTG,56.52,T,,M,0.38,N,0.7,K,A*35
$GPGGA,152158.000,0856.1877,N,07933.3414,W,1,09,0.9,17.8,M,1.3,M,,0000*46
$GPGLL,0856.1877,N,07933.3414,W,152158.000,A,A*4F
!AIVDM,1,1,,B,17745J1013rCrgH568sdU:1j0<tq,0*21
$GPGSA,A,3,18,12,25,31,22,24,29,14,21,,,,1.8,0.9,1.5*32
Udp9F:d3siwDTvtOm9?g7tnwv003Gl0,4*1B
!AIVDM,1,1,,A,15QK90?001JD13N54T:JIPW@0Uq8,0*7A
!AIVDM,2,1,7,B,A03IupkAC4:dH0N9BQIh6Oit05DOw;406A;uo@4s3?dowm<MuaSw;1GuiOlI,0*35
!AIVDM,2,2,7,B,3gmU0k`FwB80:rbb,0*76
!AIVDM,1,1,,A,15Rbjb0000rC`TT59jE67A6j00SU,0*72
!AIVDM,1,1,,B,15Bs:H8000JCpnh53r0STP1p2`?o,0*45
$GPGGA,152327.000,0856.1864,N,07933.3379,W,1,08,1.0,21.9,M,1.3,M,,0000*4F
$GPGLL,0856.1864,N,07933.3379,W,152327.000,A,A*4B
!AIVDM,1,1,,B,15NK0G0P01rCl4P57AfqJgvn08@4,0*16
!AIVDM,1,1,,B,1000000P01rD03v56g<pWgvl0H@5,0*09
$GPGSA,A,3,18,12,25,31,22,29,14,21,,,,,2.1,1.0,1.8*3B
!AIVDM,1,1,,A,B5RVdt00KvTvbuQASp=e3weUoP06,0*6B
!AIVDM,1,1,,B,11aucipP01rD10F56PNK1?vp25qL,0*0F
!AIVDM,1,1,,A,15?7P`0P00rCqM@52n<:>?vn2<1<,0*42
$GPRMC,152327.000,A,0856.1864,N,07933.3379,W,0.17,127.19,310314,,,A*72
!AIVDO,1,1,,,B39i>1000FTu:vQAl<Q?OweUkP06,0*4B
!AIVDM,1,1,,B,15S`Op000drCfm058HSeAbbj00Sh,0*10
$GPVTG,127.19,T,,M,0.17,N,0.3,K,A*04
!AIVDM,1,1,,B,1ENQaV?P@FrCcVr59@kdcb<l2000,0*76
!AIVDM,1,1,,A,H3Ig3G04lDhUB22222222222220,2*54
!AIVDM,1,1,,B,3EDGwj1002rB:b@5Bf``Ibd`0000,0*58
!AIVDM,1,1,,B,35BDU`0Oh3rCP2`5:Nt8J@Rp020@,0*50
!AIVDM,1,1,,B,14`WDl?001JCi::57nCf19Np0D0n,0*04
!AIVDM,1,1,,B,1ETFMB0P00rCRg85:EVbjOvb0000,0*5F
$GPGGA,152328.000,0856.1863,N,07933.3378,W,1,09,0.9,21.9,M,1.3,M,,0000*4F
$GPGLL,0856.1863,N,07933.3378,W,152328.000,A,A*42
$GPGSA,A,3,18,12,25,31,22,24,29,14,21,,,,1.8,0.9,1.5*32
!AIVDM,1,1,,A,15B9j>0P00rCvIf52UNpW?vr2<4a,0*5E
$GPRMC,152328.000,A,0856.1863,N,07933.3378,W,0.15,115.04,310314,,,A*74
!AIVDO,1,1,,,B39i>1000FTu:w1Al<M7swf5kP06,0*61
$GPVTG,115.04,T,,M,0.15,N,0.3,K,A*0B
!AIVDM,2,1,8,A,5Ks@N8@00000h5FTlE8lE8t0000000000000000j0H<22000000`<`0@0000,0*0F
!AIVDM,2,2,8,A,00000000000,2*2C
!AIVDM,1,1,,A,1;rtnP@P2tJCr6L56Ooh5?vprKwC,0*09
!AIVDM,1,1,,A,17745J100wrCr?<56>5dRb0p08A0,0*3F
!AIVDM,1,1,,B,15EG2t8P00JCoiT53UeUv?vr05qL,0*40
$GPGGA,152329.000,0856.1863,N,07933.3378,W,1,09,0.9,21.9,M,1.3,M,,0000*4E
$GPGLL,0856.1863,N,07933.3378,W,152329.000,A,A*43
$GPGSA,A,3,18,12,25,31,22,24,29,14,21,,,,1.8,0.9,1.5*32
$GPGSV,3,1,10,21,57,181,41,18,53,043,43,22,39,349,32,25,35,126,49*75
$GPGSV,3,2,10,14,35,320,32,31,31,219,39,12,23,085,48,24,11,034,34*7F
$GPGSV,3,3,10,29,06,159,46,27,03,265,35*7B
$GPRMC,152329.000,A,0856.1863,N,07933.3378,W,0.13,120.02,310314,,,A*73
!AIVDO,1,1,,,B39i>1000FTu:w1Al<M;3wfUkP06,0*4D
$GPVTG,120.02,T,,M,0.13,N,0.2,K,A*0C
!AIVDM,1,1,,B,D03Iu6PAhN00H0N00N@N000,2*1B
!AIVDM,1,1,,B,803Iu6PF1d<h0bJJ1a8S088l2e;siwDJvtOm6gg7u>Gv003Gp0,4*52
$GPGGA,152330.000,0856.1863,N,07933.3378,W,1,09,0.9,22.0,M,1.3,M,,0000*4C
!AIVDM,1,1,,B,15AVTD0PAGrCfG458MQVBDtt2@Ao,0*79
$GPGLL,0856.1863,N,07933.3378,W,152330.000,A,A*4B
$GPGSA,A,3,18,12,25,31,22,24,29,14,21,,,,1.8,0.9,1.5*32
$GPRMC,152330.000,A,0856.1863,N,07933.3378,W,0.14,132.63,310314,,,A*78
!AIVDO,1,1,,,B39i>1000FTu:w1Al<MBswg5kP06,0*15
$GPVTG,132.63,T,,M,0.14,N,0.3,K,A*0E
!AIVDM,1,1,,B,14VNgJ0009rCbg<59IQd>Ipl0@B1,0*0C
!AIVDM,1,1,,B,15RovJ0P02rCtvd56nCoCOvv2@B9,0*51
!AIVDM,1,1,,B,3ECSPJ?P30JCk<H57@i5N?vj0000,0*50
!AIVDM,1,1,,A,3INS8nQ003rB3Cp5JBeV3P`p0000,0*38
!AIVDM,1,1,,B,15>kSB8P00rC`Vl59jr7Q?vv25qL,0*11
!AIVDM,1,1,,A,84Skql0F0P000000000004QFAAh000000CjpD0000h0,2*25
!AIVDM,1,1,,A,3EQb625000rBCpT5Fru=:bR`0000,0*16
$GPGGA,152331.000,0856.1863,N,07933.3378,W,1,09,0.9,22.0,M,1.3,M,,0000*4D
$GPGLL,0856.1863,N,07933.3378,W,152331.000,A,A*4A
!AIVDM,1,1,,B,3ERVdt?P1grCrcn56?Pnl?vn2000,0*7B
!AIVDM,1,1,,B,15ATk20001rCs4453JksaPTr05qL,0*55
$GPGSA,A,3,18,12,25,31,22,24,29,14,21,,,,1.8,0.9,1.5*32
!AIVDM,1,1,,A,35BDU`0Oh3rCP2`5:Nt8LhVv00vh,0*13
!AIVDM,1,1,,B,15BUvr0P0QrC`H459cwtW?vv2HBR,0*70
$GPRMC,152331.000,A,0856.1863,N,07933.3378,W,0.13,131.43,310314,,,A*7F
!AIVDO,1,1,,,B39i>1000FTu:w1Al<MB;wgUkP06,0*3D
$GPVTG,131.43,T,,M,0.13,N,0.2,K,A*09
!AIVDM,1,1,,A,35TB;n5P@drCfp058GS=BJPt001S,0*5F
!AIVDM,1,1,,A,3EEIW01000rB5nh5J7k6LQ6`0000,0*67
!AIVDM,1,1,,B,35NGWJ1P00rCgU257lI4V?vv0000,0*1D
!AIVDM,1,1,,B,14hwN60003rCwnd56`u2d0U00<3I,0*6B
!AIVDM,1,1,,B,15>h@F002GrD<:@4whi@E@C000S9,0*6A
!AIVDM,1,1,,B,19NS<u001HrCApb5<Ei=Brc000SC,0*09
$GPGGA,152332.000,0856.1863,N,07933.3377,W,1,09,0.9,22.0,M,1.3,M,,0000*41
$GPGLL,0856.1863,N,07933.3377,W,152332.000,A,A*46
$GPGSA,A,3,18,12,25,31,22,24,29,14,21,,,,1.8,0.9,1.5*32
!AIVDM,1,1,,B,15TFMB0P00rCRg85:EVbjOw000S2,0*1D
$GPRMC,152332.000,A,0856.1863,N,07933.3377,W,0.09,151.18,310314,,,A*70
!AIVDO,1,1,,,B39i>10006Tu:wQAl<MNOwh5kP06,0*3A
!AIVDM,1,1,,B,1000Fo@P00rCt@L53f;Rcww000RF,0*1A
$GPVTG,151.18,T,,M,0.09,N,0.2,K,A*0A
!AIVDM,1,1,,B,15QJeb000drCfW858KQuB:e020SI,0*06
!AIVDM,1,1,,A,B5NTN9000>TwA;QAVWP5Gwh5oP06,0*4B
!AIVDM,1,1,,B,35`OGN?Oh3rCwwh56Rpn=13426v3,0*72
$GPGGA,152333.000,0856.1863,N,07933.3377,W,1,09,0.9,22.1,M,1.3,M,,0000*41
!AIVDM,1,1,,A,1775gb000TrC`b:59bndEaq400Rl,0*71
$GPGLL,0856.1863,N,07933.3377,W,152333.000,A,A*47
$GPGSA,A,3,18,12,25,31,22,24,29,14,21,,,,1.8,0.9,1.5*32
$GPRMC,152333.000,A,0856.1863,N,07933.3377,W,0.10,122.20,310314,,,A*76
!AIVDO,1,1,,,B39i>1000FTu:wQAl<M<KwhUkP06,0*5C
$GPVTG,122.20,T,,M,0.10,N,0.2,K,A*0D
!AIVDM,1,1,,B,109t5aW000rCiA257fnGdK;42D4`,0*3E
!AIVDM,1,1,,A,A03IupkAC4:dH0v9BU@P1cF6nud@NrP5wH5T,0*01
!AIVDM,1,1,,A,15?P>b0017rC`ql59b0dgbA20`5d,0*16
!AIVDM,1,1,,B,15D>NJ0000rCp7253rwpU07228D8,0*7E
$GPGGA,152334.000,0856.1863,N,07933.3376,W,1,09,0.9,22.1,M,1.3,M,,0000*47
$GPGLL,0856.1863,N,07933.3376,W,152334.000,A,A*41
!AIVDM,1,1,,A,803Iu6PF1d=h0a@QAa>E;@6lfbCsiwDfvtOm;gg7u0gv003Gt0,4*7F
$GPGSA,A,3,18,12,25,31,22,24,29,14,21,,,,1.8,0.9,1.5*32
!AIVDM,1,1,,A,15R=@2:P00rCplF53r5l>Ow628D>,0*53
$GPGSV,3,1,10,21,57,181,40,18,53,043,43,22,39,349,33,25,35,126,49*75
!AIVDM,1,1,,B,35BDU`0Oh3rCP2`5:Nt8Ohc4006Q,0*1D
$GPGSV,3,2,10,14,35,320,32,31,31,219,32,12,23,085,47,24,11,034,33*7C
$GPGSV,3,3,10,29,06,159,47,27,03,265,33*7C
!AIVDM,1,1,,B,1;rtnP@P1KJCr7f56Po@cww4rKwC,0*71
$GPRMC,152334.000,A,0856.1863,N,07933.3376,W,0.15,109.17,310314,,,A*78
!AIVDO,1,1,,,B39i>1000FTu;01Al<M4?wi5kP06,0*67
!AIVDM,1,1,,B,14a1Eb01@JrCbWV59I3dDIq40<4O,0*23
$GPVTG,109.17,T,,M,0.15,N,0.3,K,A*04
!AIVDM,1,1,,B,3EC@At1000rD<C855dd5UP8`0000,0*7D
!AIVDM,1,1,,A,15QdFT?P00JCr6B54CDUIgw608D`,0*75
!AIVDM,1,1,,B,1Cm6ITS000rCBAd5<CtMqTld2000,0*78
!AIVDM,1,1,,B,85BDU`0F0P0000000000040@klP000000DE7P@300h0,2*61
!AIVDM,1,1,,A,15NQaV?00CrCcUr59@udTr;825qL,0*41
$GPGGA,152335.000,0856.1863,N,07933.3376,W,1,08,1.0,22.1,M,1.3,M,,0000*4F
!AIVDM,1,1,,B,15?Jc<0001rCw0b53js<>07608Dj,0*14
$GPGLL,0856.1863,N,07933.3376,W,152335.000,A,A*40
!AIVDM,1,1,,A,3INWvSA001rCw6854<`Wl0Hd0000,0*22
$GPGSA,A,3,18,12,25,31,22,29,14,21,,,,,2.1,1.0,1.8*3B
$GPRMC,152335.000,A,0856.1863,N,07933.3376,W,0.15,103.18,310314,,,A*7C
!AIVDO,1,1,,,B39i>1000FTu;01Al<M0OwiUkP06,0*73
$GPVTG,103.18,T,,M,0.15,N,0.3,K,A*01
!AIVDM,1,1,,A,15TPq@0000rCfUd57oDifWG820SM,0*63
!AIVDM,1,1,,A,15RVtT0P00rCl9V533ILUgw820SK,0*03
!AIVDM,2,1,9,B,59NSAUl2@p8p7QQWR20LhDp@60lE9Tj22222221@BHT;E4r80CPPC0ShH888,0*22
!AIVDM,2,2,9,B,88888888880,2*2E
!AIVDM,1,1,,B,15ANdJ000?rCURV5:37d2qg40D2H,0*1E
$GPGGA,152336.000,0856.1863,N,07933.3375,W,1,08,1.0,22.2,M,1.3,M,,0000*4C
$GPGLL,0856.1863,N,07933.3375,W,152336.000,A,A*40
$GPGSA,A,3,18,12,25,31,22,29,14,21,,,,,2.1,1.0,1.8*3B
$GPRMC,152336.000,A,0856.1863,N,07933.3375,W,0.17,92.94,310314,,,A*43
!AIVDO,1,1,,,B39i>1000FTu;0QAl<Lr7wj5kP06,0*4B
$GPVTG,92.94,T,,M,0.17,N,0.3,K,A*3E
!AIVDM,1,1,,A,15SNCR8P0?JCUfv5:1qL4Ow82<1u,0*78
!AIVDM,1,1,,B,15QK90?001JD13<54T;bIPWp0hES,0*70
!AIVDM,1,1,,B,15NMBi;P02rCfgf58BwAMgw:2<4F,0*54
!AIVDM,1,1,,A,11aucipP00rD10H56PNsHgw:20Rg,0*5C
$GPGGA,152337.000,0856.1863,N,07933.3374,W,1,09,0.9,22.3,M,1.3,M,,0000*44
$GPGLL,0856.1863,N,07933.3374,W,152337.000,A,A*40
!AIVDM,1,1,,B,38I;pP1001rCw5:53k8chh;:0000,0*02
$GPGSA,A,3,18,12,25,31,22,24,29,14,21,,,,1.8,0.9,1.5*32
!AIVDM,1,1,,B,13nuv2002:rCh8R4m6lhShM<28Ew,0*5A
$GPRMC,152337.000,A,0856.1863,N,07933.3374,W,0.21,94.69,310314,,,A*42
!AIVDO,1,1,,,B39i>1000VTu;11Al<Ls;wjUkP06,0*57
$GPVTG,94.69,T,,M,0.21,N,0.4,K,A*38
!AIVDM,1,1,,A,1000000P01rD03r56g<WHww800SU,0*78
!AIVDM,1,1,,B,15B9j>0P00rCvIN52UNp`?w>25qL,0*6E
!AIVDM,1,1,,A,35BDU`0Oh3rCP2`5:Nq`QPi<01oP,0*3E
$GPGGA,152338.000,0856.1864,N,07933.3374,W,1,09,0.9,22.3,M,1.3,M,,0000*4C
$GPGLL,0856.1864,N,07933.3374,W,152338.000,A,A*48
$GPGSA,A,3,18,12,25,31,22,24,29,14,21,,,,1.8,0.9,1.5*32
!AIVDM,1,1,,A,14`WDl?001JCi:657nDf19O>05qL,0*51
$GPRMC,152338.000,A,0856.1864,N,07933.3374,W,0.18,81.76,310314,,,A*4A
!AIVDO,1,1,,,B39i>1000FTu;11Al<Pk7wk5kP06,0*2E
!AIVDM,1,1,,A,15EG2t8P00JCoif53UeT<ww<05qL,0*3D
$GPVTG,81.76,T,,M,0.18,N,0.3,K,A*3F
!AIVDM,1,1,,A,19NSAUh020rDE`J4srl@507>00RO,0*2C
!AIVDM,1,1,,A,15NK0G0P01rCl4F57AgqsOw<00R>,0*50
!AIVDM,1,1,,B,17745J100vrCr<456>`dRb3<0@Fb,0*01
!AIVDM,1,1,,A,15QDO>0P00rC`bP59lw2Kww:05qL,0*29
!AIVDM,1,1,,B,803Iu6PF1d=00a=Hqa>R3000NeksiwDnvtOm=gg7tlowwwsH00,4*13
!AIVDM,1,1,,A,15>h@F002FrD<;@4wigPChA<00SC,0*2C
!AIVDM,1,1,,A,15S`Op000crCfkF58I5u?rc:05qL,0*2F
$GPGGA,152339.000,0856.1864,N,07933.3373,W,1,09,0.9,22.3,M,1.3,M,,0000*4A
$GPGLL,0856.1864,N,07933.3373,W,152339.000,A,A*4E
!AIVDM,1,1,,B,B4eHDB00:VTu>rQAiD7<GwkUoP06,0*78
$GPGSA,A,3,18,12,25,31,22,24,29,14,21,,,,1.8,0.9,1.5*32
$GPGSV,3,1,10,21,56,181,40,18,53,043,42,22,39,349,40,25,35,126,48*70
!AIVDM,1,1,,B,1E>uP00P0BrCUDd5:5QLJ?w62000,0*3D
$GPGSV,3,2,10,14,35,320,41,31,31,219,33,12,23,085,47,24,11,034,33*79
$GPGSV,3,3,10,29,06,159,46,27,03,265,31*7F
$GPRMC,152339.000,A,0856.1864,N,07933.3373,W,0.17,66.17,310314,,,A*4D
!AIVDO,1,1,,,B39i>1000FTu;1QAl<PaGwkUkP06,0*54
!AIVDM,1,1,,A,H3P=4GhPuD85840000000000000,2*79
$GPVTG,66.17,T,,M,0.17,N,0.3,K,A*3E
!AIVDM,1,1,,A,1KrtnP@P1KJCr7f56Po@cww4r000,0*4D
!AIVDM,1,1,,A,177ho2001nrCorh4lncPKPI<08Gc,0*7E
$GPGGA,152340.000,0856.1864,N,07933.3372,W,1,09,0.9,22.3,M,1.3,M,,0000*45
!AIVDM,1,1,,B,15TB;n500drCfnh58Gt=@bQ>0D3w,0*1C
!AIVDM,1,1,,B,37fFfr1000JD3`h50bnbAPW<0000,0*30
$GPGLL,0856.1864,N,07933.3372,W,152340.000,A,A*41
!AIVDM,1,1,,A,15AVTD001HrCfIh58LW6ATu@2D3w,0*18
$GPGSA,A,3,18,12,25,31,22,24,29,14,21,,,,1.8,0.9,1.5*32
$GPRMC,152340.000,A,0856.1864,N,07933.3372,W,0.21,68.48,310314,,,A*43
!AIVDO,1,1,,,B39i>1000VTu;21Al<Pbkwl5kP06,0*6F
$GPVTG,68.48,T,,M,0.21,N,0.4,K,A*38
!AIVDM,1,1,,A,403Iu6QupwgG`rCk0d57rwW00L3j,0*33
!AIVDM,1,1,,B,1ENMBi;P01rCfgV58Bwi7Ovn2000,0*46
!AIVDM,1,1,,A,15>kSB8P00rC`Vt59jpWQ?w@2HGw,0*2F
!AIVDM,1,1,,A,1;rtnP@P0mJCr9B56QB1B?wBr0S0,0*11
!AIVDM,1,1,,B,403IupiupwgGarC9065>=fW005qL,0*05
$GPGGA,152341.000,0856.1865,N,07933.3372,W,1,09,0.9,22.3,M,1.3,M,,0000*45
!AIVDM,1,1,,B,403Iu6QupwgGarCk0d57rwW00L3j,0*31
$GPGLL,0856.1865,N,07933.3372,W,152341.000,A,A*41
$GPGSA,A,3,18,12,25,31,22,24,29,14,21,,,,1.8,0.9,1.5*32
!AIVDM,1,1,,A,14hwN60P@2rCwnr56`v2P0SD08HD,0*58
!AIVDM,1,1,,B,34bIV61Oh1rCw4256hOHEc7D0l`b,0*69
$GPRMC,152341.000,A,0856.1865,N,07933.3372,W,0.22,69.73,310314,,,A*49
!AIVDO,1,1,,,B39i>1000VTu;21Al<TcWwlUkP06,0*36
!AIVDM,1,1,,B,3ERlgH1001JB?pb5GB;bP;:n8000,0*39
$GPVTG,69.73,T,,M,0.22,N,0.4,K,A*32
!AIVDM,1,1,,B,35BDU`0Oh3rCP2`5:Nq`V0mB010P,0*7F
!AIVDM,1,1,,A,15RovJ0P03rCtvf56n@ow?wD25qL,0*16
!AIVDM,1,1,,B,34ce5n1000rCuBv54FlHqc9DR000,0*60
!AIVDM,1,1,,A,19NS<u001HrCAmv5<FRuB:cB0@HS,0*32
!AIVDM,1,1,,A,15TFMB0P01rCRg85:EVUAwwD0<3w,0*66
!AIVDM,1,1,,A,15BUvr0P0RrC`F:59dA<pwwB2D3>,0*42
!AIVDM,1,1,,A,H3P=4GlU71B=9>0j6HDl001H=750,0*7E
!AIVDM,1,1,,B,1775gb000TrC``H59c5<E9qF08Hn,0*3A
$GPGGA,152342.000,0856.1865,N,07933.3371,W,1,09,0.9,22.3,M,1.3,M,,0000*45
!AIVDM,1,1,,A,803Iu6PF1d=@0a:=ma>fN`7EbT;siwDTvtOm9?g7tm7v003H40,4*52
!AIVDM,1,1,,B,15AfoT?001rCpuF54Fg:?K7F2<4@,0*24
$GPGLL,0856.1865,N,07933.3371,W,152342.000,A,A*41
!AIVDM,1,1,,A,15QDvN0P00rC`R859jQ6k?wD2@Ht,0*7C
$GPGSA,A,3,18,12,25,31,22,24,29,14,21,,,,1.8,0.9,1.5*32
$GPRMC,152342.000,A,0856.1865,N,07933.3371,W,0.24,55.81,310314,,,A*4D
!AIVDO,1,1,,,B39i>1000VTu;2QAl<TRswm5kP06,0*22
$GPVTG,55.81,T,,M,0.24,N,0.4,K,A*36
!AIVDM,1,1,,A,1000Fo@P00rCt@653f<d6wwD05qL,0*5F
!AIVDM,1,1,,B,15R=@2:P00rCplD53r5l8wwH20Sq,0*42
!AIVDM,1,1,,B,144FV@?P00rCQUN5:P40hwwF2@IF,0*58
!AIVDM,1,1,,B,85TB;n0F0P000000000004Tkk2D000000DE7PD>00h0,2*1D
!AIVDM,1,1,,A,15QJeb000crCfUd58L2MAbeF2@IK,0*45
$GPGGA,152343.000,0856.1866,N,07933.3371,W,1,09,0.9,22.2,M,1.3,M,,0000*46
!AIVDM,1,1,,A,3C7N?41000rB1wV5HWd2p@hv0000,0*57
$GPGLL,0856.1866,N,07933.3371,W,152343.000,A,A*43
!AIVDM,1,1,,B,1KrtnP@P0mJCr9B56QB1B?wBr000,0*01
$GPGSA,A,3,18,12,25,31,22,24,29,14,21,,,,1.8,0.9,1.5*32
$GPRMC,152343.000,A,0856.1866,N,07933.3371,W,0.16,62.38,310314,,,A*48
!AIVDO,1,1,,,B39i>1000FTu;2QAl<`VwwmUkP06,0*66
$GPVTG,62.38,T,,M,0.16,N,0.3,K,A*36
!AIVDM,1,1,,B,H5RVdt1P58Dt000000000000000,2*22
!AIVDM,1,1,,A,15D>NJ0000rCp7253rwpU07F2@Il,0*28
!AIVDM,1,1,,A,15`OGN?006rD00<56RplaA5J2D4M,0*1A
!AIVDM,1,1,,B,15Berf100PrCqkj53fiQmBK@0@Iw,0*00
!AIVDM,1,1,,A,33iQIL1201rCvDj54kjU5:uF0000,0*19
$GPGGA,152344.000,0856.1866,N,07933.3370,W,1,09,0.9,22.2,M,1.3,M,,0000*40
!AIVDM,1,1,,B,15>h@F002FrD<<:4wjePAhAH0@J3,0*3C
$GPGLL,0856.1866,N,07933.3370,W,152344.000,A,A*45
$GPGSA,A,3,18,12,25,31,22,24,29,14,21,,,,1.8,0.9,1.5*32
$GPGSV,3,1,10,21,56,181,38,18,53,043,42,22,39,349,41,25,35,126,49*7F
!AIVDM,1,1,,A,H3Ig3G5S653hhhi6>D2PPP1`4150,0*2F
$GPGSV,3,2,10,14,35,320,40,31,31,219,42,12,23,085,47,24,11,034,33*7E
!AIVDM,1,1,,A,15BDU`0Oh2rCP2`5:Nq`bhqJ00Rc,0*57
$GPGSV,3,3,10,29,06,159,45,27,03,265,39*74
!AIVDM,1,1,,B,15QdFT?P00JCr6:54CE4twwH0HJB,0*61
$GPRMC,152344.000,A,0856.1866,N,07933.3370,W,0.13,56.82,310314,,,A*4D
!AIVDO,1,1,,,B39i>1000FTu;31Al<`SSwn5kP06,0*45
!AIVDM,1,1,,A,109t5aW000rCi@t57fmW`K;J25qL,0*0B
$GPVTG,56.82,T,,M,0.13,N,0.2,K,A*34
!AIVDM,1,1,,A,14a1Eb0vhJrCbVD59ICdGaqH0<4P,0*64
!AIVDM,1,1,,B,15RVtT0P00rCl9f533Hu6gwH28JG,0*06
!AIVDM,1,1,,B,15NQaV?P@FrCcTd59A9LSr;L28JS,0*7F
$GPGGA,152345.000,0856.1866,N,07933.3370,W,1,09,0.9,22.2,M,1.3,M,,0000*41
$GPGLL,0856.1866,N,07933.3370,W,152345.000,A,A*44
!AIVDM,1,1,,A,15?Jc<0001rCw0B53jp;n@7J08J`,0*6B
$GPGSA,A,3,18,12,25,31,22,24,29,14,21,,,,1.8,0.9,1.5*32
$GPRMC,152345.000,A,0856.1866,N,07933.3370,W,0.12,53.95,310314,,,A*4E
!AIVDO,1,1,,,B39i>1000FTu;31Al<`QgwnUkP06,0*13
$GPVTG,53.95,T,,M,0.12,N,0.2,K,A*36
!AIVDM,1,1,,A,39NWt:U001rCg4N57rJ8=W=L2000,0*28
!AIVDM,1,1,,B,H5RVdt4j>1F93?0<1EaH1B108220,0*45
!AIVDM,1,1,,B,15TPq@0000rCfUt57oJAaGGL2HK4,0*2C
!AIVDM,2,1,0,B,59NWt:P2>Uad7Pq7N20<52105A@tr22222222216D@H3I4wa0DPPC0ShH888,0*49
!AIVDM,2,2,0,B,88888888880,2*27
!AIVDM,1,1,,A,15QK90?001JD13<54T<JIPWp0`K;,0*32
$GPGGA,152346.000,0856.1867,N,07933.3370,W,1,09,0.9,22.2,M,1.3,M,,0000*43
$GPGLL,0856.1867,N,07933.3370,W,152346.000,A,A*46
!AIVDM,2,1,1,B,55R=@201hER7<Dp7N20nuB0=8U=@t84j1A84@E9@000005dj0=PPC0ShH0CP,0*43
!AIVDM,2,2,1,B,j3lPAiH8880,2*1B
!AIVDM,1,1,,A,15Rbjb0000rC`TT59jE6?Q7J0<3w,0*05
$GPGSA,A,3,18,12,25,31,22,24,29,14,21,,,,1.8,0.9,1.5*32
!AIVDM,1,1,,A,3815:wQ001rCsEt4w`W8CqoJ0000,0*2C
!AIVDM,1,1,,A,15?7P`0P00rCqM@52n<:>?wL20Sr,0*41
!AIVDM,2,1,2,B,55NQaV000001L@OK3C<Dj0<QE04<4986222222000000040Ht00000000000,0*4C
!AIVDM,2,2,2,B,00000000000,2*25
$GPRMC,152346.000,A,0856.1867,N,07933.3370,W,0.13,57.74,310314,,,A*46
!AIVDO,1,1,,,B39i>1000FTu;31Al<dT7wo5kP06,0*23
$GPVTG,57.74,T,,M,0.13,N,0.2,K,A*3C
!AIVDM,1,1,,B,803Iu6PF1dMP0ahjua;dd01m6eSsiwDTvtOm9?g7uAOwwwsH80,4*6A
!AIVDM,1,1,,A,15Q@a8001hJD8>F4uUs0WhSN05qL,0*30
!AIVDM,2,1,3,A,54`VsK02?QWd?ITC:20<hU10E:1@4hDqB2222216BpLF658<0G25AC5PH888,0*57
!AIVDM,2,2,3,A,88888888880,2*27
!AIVDM,1,1,,B,15NK0G0P01rCl4B57Agr8OwN08K`,0*22
!AIVDM,2,1,4,A,54ce5n02>uAWQ1E>220iT<5HU@u>222222222216CHN:F4uF0A40CPC@H888,0*37
!AIVDM,2,2,4,A,88888888880,2*20
!AIVDM,2,1,5,B,54hwN600?GJU`L9cT00A8D4l000000000000000U2PU654jb`8lhC`2U@CP0,0*43
!AIVDM,2,2,5,B,00000000000,2*22
!AIVDM,1,1,,B,1000000P00rD03n56g<H<gwL0<2p,0*21
!AIVDM,1,1,,A,15NMBi;P01rCfgl58BwidwwP28Ki,0*71
$GPGGA,152347.000,0856.1867,N,07933.3370,W,1,09,0.9,22.2,M,1.3,M,,0000*42
!AIVDM,1,1,,A,3EAs0r1002rB4rF5H2vLk@aFR000,0*08
$GPGLL,0856.1867,N,07933.3370,W,152347.000,A,A*47
!AIVDM,2,1,6,B,509t5aP1rR2D8<:22204hE@605aDj2222222221J3`S1<69`e<ShmD0A3p1C,0*02
!AIVDM,2,2,6,B,`41DhhH8880,2*70
$GPGSA,A,3,18,12,25,31,22,24,29,14,21,,,,1.8,0.9,1.5*32
!AIVDM,1,1,,A,15ANdJ000@rCUQR5:3AL1aiJ0@Kq,0*1C
!AIVDM,1,1,,B,19NSAUh020rDE`f4st504h7P0D4H,0*0E
$GPRMC,152347.000,A,0856.1867,N,07933.3370,W,0.13,52.15,310314,,,A*45
!AIVDO,1,1,,,B39i>1000FTu;31Al<dPWwoUkP06,0*27
$GPVTG,52.15,T,,M,0.13,N,0.2,K,A*3E
!AIVDM,1,1,,A,35R?dB0P@:rCc<b59FLcprIN20w1,0*59
!AIVDM,1,1,,B,15S`Op000crCfj@58ILM@:cJ08Kw,0*21
!AIVDM,1,1,,A,17745J100vrCr9@56?4<Rb3L05qL,0*62
$GPGGA,152348.000,0856.1868,N,07933.3369,W,1,09,0.9,22.2,M,1.3,M,,0000*4A
!AIVDM,1,1,,B,8Cdhq:0F0P00000000000<T2C3l000000>im00000j0,2*2B
$GPGLL,0856.1868,N,07933.3369,W,152348.000,A,A*4F
!AIVDM,1,1,,B,B5@tlL008vTva81A`dfe?we5oP06,0*25
!AIVDM,1,1,,B,15EG2t8P00JCoiJ53UhBUgwP0HLI,0*59
$GPGSA,A,3,18,12,25,31,22,24,29,14,21,,,,1.8,0.9,1.5*32
!AIVDM,1,1,,B,35BDU`0Oh2rCP2D5:Nq`lhuP01t@,0*66
!AIVDM,2,1,7,B,54bIV641iKeUK?1SF20u0>0@DHDp@E:22222221S000004La07PPC0ShKl5C,0*75
!AIVDM,2,2,7,B,U0H0khkp880,2*25
$GPRMC,152348.000,A,0856.1868,N,07933.3369,W,0.14,50.59,310314,,,A*40
!AIVDO,1,1,,,B39i>1000FTu;3QAl<hOWwp5kP06,0*2B
$GPVTG,50.59,T,,M,0.14,N,0.3,K,A*32
!AIVDM,1,1,,A,15B9j>0P00rCvId52UO8SgwR20Rd,0*07
!AIVDM,1,1,,B,13AwlL0000JCT7p5:;a1p9eP0d2=,0*68
$GPGGA,152349.000,0856.1868,N,07933.3369,W,1,09,0.9,22.2,M,1.3,M,,0000*4B
!AIVDM,2,1,8,B,5ESE9V02B0WG<HHcJ21HDq85V22222222222221I<p73;400001F43;`0CPj,0*28
!AIVDM,2,2,8,B,;`888888880,2*74
$GPGLL,0856.1868,N,07933.3369,W,152349.000,A,A*4E
$GPGSA,A,3,18,12,25,31,22,24,29,14,21,,,,1.8,0.9,1.5*32
!AIVDM,1,1,,B,13nuv2002;rCh<24m8V@T@MT2<4P,0*36
$GPGSV,3,1,10,21,56,181,39,18,53,043,42,22,39,349,42,25,35,126,49*7D
$GPGSV,3,2,10,14,35,321,39,31,31,219,42,12,23,085,48,24,11,034,34*79
$GPGSV,3,3,10,29,06,159,45,27,03,265,38*75
$GPRMC,152349.000,A,0856.1868,N,07933.3369,W,0.12,39.07,310314,,,A*43
!AIVDO,1,1,,,B39i>1000FTu;3QAl<hHKwpUkP06,0*50
$GPVTG,39.07,T,,M,0.12,N,0.2,K,A*31
!AIVDM,2,1,9,A,A03IupkAC4:dH0N9BlMh6Oiw05DOw;846A;up00s3?dm05<Mua;t;1GuhgpI,0*22
!AIVDM,2,2,9,A,3gmTwS`FwBD1:rbb,0*78
!AIVDM,1,1,,A,15>h@F002FrD<<v4wkch@PAT0<4R,0*0A
$GPGGA,152350.000,0856.1868,N,07933.3369,W,1,09,0.9,22.1,M,1.3,M,,0000*40
$GPGLL,0856.1868,N,07933.3369,W,152350.000,A,A*46
$GPGSA,A,3,18,12,25,31,22,24,29,14,21,,,,1.8,0.9,1.5*32
!AIVDM,1,1,,B,15RovJ0P03rCtvJ56n=pDOwV2@Mb,0*6D
$GPRMC,152350.000,A,0856.1868,N,07933.3369,W,0.07,26.89,310314,,,A*47
!AIVDO,1,1,,,B39i>10006Tu;3QAl<h@kwq5kP06,0*69
$GPVTG,26.89,T,,M,0.07,N,0.1,K,A*3E
!AIVDM,1,1,,A,15TB;n5P@drCfm<58HJ=AJMT05qL,0*3E
!AIVDM,1,1,,A,15AfoT?001rCpuB54Ffr?s7V25qL,0*02
!AIVDM,2,1,0,B,A03IupkAC4:dH0N9Bm1h6OiwwmDOw;806A;up00s3?dlwm<Mua42;1GuhP8I,0*66
!AIVDM,2,2,0,B,3gmT03`FwBD2:rbb,0*56
!AIVDM,1,1,,A,35BDU`0Oh2rCP2D5:Nq`fhwV012P,0*3D
!AIVDM,1,1,,B,15AVTD0PAJrCfLF58Kd6@4sT28Ms,0*63
!AIVDM,1,1,,B,15BUvr0P0QrC`Dd59dRLk?wT25qL,0*79
!AIVDM,1,1,,B,14VNgJ0009rCbev59IcLAqqN00R8,0*53
!AIVDM,1,1,,B,1000Fo@P00rCt@D53f=0ugwV05qL,0*3A
$GPGGA,152351.000,0856.1869,N,07933.3369,W,1,09,0.9,22.2,M,1.3,M,,0000*43
$GPGLL,0856.1869,N,07933.3369,W,152351.000,A,A*46
!AIVDM,1,1,,B,1Cdhq:01QBrC?E45=1ktsJGR0000,0*77
!AIVDM,1,1,,A,H5Saml0aE8Dh000000000000000,2*5A
$GPGSA,A,3,18,12,25,31,22,24,29,14,21,,,,1.8,0.9,1.5*32
$GPRMC,152351.000,A,0856.1869,N,07933.3369,W,0.08,25.80,310314,,,A*42
!AIVDO,1,1,,,B39i>10006Tu;3QAl<l@;wqUkP06,0*5D
!AIVDM,1,1,,B,14hwN60P@3rCwo<56`wBSPO`0HN>,0*33
$GPVTG,25.80,T,,M,0.08,N,0.2,K,A*38
!AIVDM,1,1,,A,3ETQkn?P1WJBDjl5I5K7iwwJ2000,0*07
!AIVDM,1,1,,B,19NS<u01AHrCAjf5<GM=BbcV0HNJ,0*5A
!AIVDM,1,1,,B,15>kSB8P00rC`W859jooQ?wV2<2L,0*6A
!AIVDM,1,1,,A,3H15?BU000rB`O`5GvH6655>0000,0*4C
$GPGGA,152352.000,0856.1869,N,07933.3369,W,1,09,0.9,22.1,M,1.3,M,,0000*43
!AIVDM,1,1,,B,35TFMB0P01rCRg85:EVTWOw`001C,0*56
$GPGLL,0856.1869,N,07933.3369,W,152352.000,A,A*45
$GPGSA,A,3,18,12,25,31,22,24,29,14,21,,,,1.8,0.9,1.5*32
$GPRMC,152352.000,A,0856.1869,N,07933.3369,W,0.07,22.30,310314,,,A*42
!AIVDO,1,1,,,B39i>10006Tu;3QAl<l=wwr5kP06,0*0F
!AIVDM,1,1,,B,3GOdj`?P00rB0cl5G3R3iOw>2000,0*5D
$GPVTG,22.30,T,,M,0.07,N,0.1,K,A*38
!AIVDM,1,1,,A,3775gb000TrC`Ur59cHtDIqb004S,0*1D
!AIVDM,1,1,,B,15QDvN0P00rC`R859jQFVOw`25qL,0*12
!AIVDM,2,1,1,B,5EANdJ42=`eDS<lP000m<>04q<0000000000001?sm88Hu0o0KhlRDm3hPC0,0*77
!AIVDM,2,2,1,B,00000000000,2*26
$GPGGA,152353.000,0856.1869,N,07933.3369,W,1,09,0.9,22.1,M,1.3,M,,0000*42
!AIVDM,1,1,,A,144FV@?P00rCQUH5:P4P0?wb25qL,0*4E
$GPGLL,0856.1869,N,07933.3369,W,152353.000,A,A*44
$GPGSA,A,3,18,12,25,31,22,24,29,14,21,,,,1.8,0.9,1.5*32
!AIVDM,1,1,,B,35QJeb000crCfTF58LO=Areb201S,0*4E
$GPRMC,152353.000,A,0856.1869,N,07933.3369,W,0.06,8.88,310314,,,A*79
!AIVDO,1,1,,,B39i>10006Tu;3QAl<l5SwrUkP06,0*43
$GPVTG,8.88,T,,M,0.06,N,0.1,K,A*02
!AIVDM,1,1,,B,109t5aW000rCi@n57fm7UK;d28OK,0*5D
!AIVDM,1,1,,A,15Berf1u@TrCqmn53fuR5jIR00Si,0*3B
!AIVDM,1,1,,B,14a1Eb020JrCbTD59IKLA9qb0HOV,0*24
!AIVDM,1,1,,A,35?P>b0017rC`jD59cC<TJ7b0PnQ,0*6E
!AIVDM,1,1,,A,H5Saml4j>1F93?0<1Ea:EB0@;220,0*15
!AIVDM,1,1,,B,15D>NJ0000rCp7253rwpU07b2<3w,0*12
!AIVDM,2,1,2,B,55TPmF42BOfpQ3C37F058<4pLDj1<4r0lTMDDj0l1`?646q=0=hPC0ShH888,0*41
!AIVDM,2,2,2,B,88888888880,2*25
!AIVDM,1,1,,A,15R=@2:P00rCplH53r5Svgwf25qL,0*18
$GPGGA,152354.000,0856.1869,N,07933.3369,W,1,09,0.9,22.1,M,1.3,M,,0000*45
$GPGLL,0856.1869,N,07933.3369,W,152354.000,A,A*43
!AIVDM,1,1,,B,15`OGN?006rD00b56RqCh11f25qL,0*0D
$GPGSA,A,3,18,12,25,31,22,24,29,14,21,,,,1.8,0.9,1.5*32
$GPGSV,3,1,10,21,56,181,40,18,53,043,43,22,39,349,42,25,35,126,49*72
!AIVDM,2,1,3,B,5815:wP2BC7MKMIKB204LDp6222222222222221DBhR:A4q50KPPC0ShGicS,0*5D
!AIVDM,2,2,3,B,p8888888880,2*6C
$GPGSV,3,2,10,14,35,321,36,31,31,219,43,12,23,085,48,24,11,034,35*76
!AIVDM,1,1,,B,803Iu6PF1eth0bliKa8ech8Q:hCsiwDTvtOm9?g7u;ov003H@0,4*4A
$GPGSV,3,3,10,29,06,159,44,27,03,265,37*7B
$GPRMC,152354.000,A,0856.1869,N,07933.3369,W,0.05,334.50,310314,,,A*74
!AIVDO,1,1,,,B39i>10006Tu;3QAl<oA7ws5kP06,0*31
$GPVTG,334.50,T,,M,0.05,N,0.1,K,A*08
!AIVDM,1,1,,B,15?Jc<0001rCvwn53josb@7d0@P<,0*49
!AIVDM,1,1,,A,3815>Hi001rCwPd54QM9OPid0000,0*43
!AIVDM,1,1,,B,3Dce5n1000rCuBv54FlHqc9DR000,0*10
!AIVDM,1,1,,B,15>uP00P0@rCUBP5:5et4Owf25qL,0*17
$GPGGA,152355.000,0856.1870,N,07933.3369,W,1,09,0.9,22.1,M,1.3,M,,0000*4C
$GPGLL,0856.1870,N,07933.3369,W,152355.000,A,A*4A
$GPGSA,A,3,18,12,25,31,22,24,29,14,21,,,,1.8,0.9,1.5*32
$GPRMC,152355.000,A,0856.1870,N,07933.3369,W,0.07,339.34,310314,,,A*70
!AIVDO,1,1,,,B39i>10006Tu;3QAl<sD7wsUkP06,0*48
$GPVTG,339.34,T,,M,0.07,N,0.1,K,A*05
!AIVDM,1,1,,A,1G745J100vrCr9@56?4<Rb3L0000,0*2A
!AIVDM,1,1,,A,15NQaV?00LrCcRn59AJ<R:;h2HPc,0*5E
!AIVDM,1,1,,A,15RVtT0P00rCl9n533I=fwwf2<1L,0*5E
!AIVDM,1,1,,A,15SNCR8P0BJCUdt5:27<;wwf2L20,0*6F
!AIVDM,1,1,,B,15NMBi;P02rCfgv58C01s?wh28Ph,0*08
!AIVDM,1,1,,B,15Q@a8001hJD8@l4uVvh`@Sh05qL,0*00
!AIVDM,1,1,,B,1ECB780P00rB:Fl5C@@mbgwV0000,0*20
!AIVDM,1,1,,A,15QdFT?P00JCr6<54CE5Ggwf0<3<,0*1B
!AIVDM,1,1,,B,15QK90?001JD13J54T<:IPap0l4i,0*20
!AIVDM,1,1,,B,19NWtEP01drDNqL4sW2Fc5Cj2<4m,0*39
!AIVDM,1,1,,B,15Rbjb0001rC`TT59jE6AQ7f0D3w,0*2D
!AIVDM,1,1,,A,15TPq@0000JCfUt57oL1V7Ij20RF,0*1D
!AIVDM,1,1,,A,13nuv2002:rCh=n4m9OPS@Mj2<4P,0*58
$GPGGA,152356.000,0856.1870,N,07933.3369,W,1,09,0.9,22.1,M,1.3,M,,0000*4F
$GPGLL,0856.1870,N,07933.3369,W,152356.000,A,A*49
!AIVDM,1,1,,A,15Bs:H8000JCpnh53qwkTP1p2W3h,0*06
$GPGSA,A,3,18,12,25,31,22,24,29,14,21,,,,1.8,0.9,1.5*32
!AIVDM,2,1,4,A,5CP=4Gh000038IQC@00PuD85840000000000000U1H=75000000`<`0@0000,0*0E
!AIVDM,2,2,4,A,00000000000,2*20
$GPRMC,152356.000,A,0856.1870,N,07933.3369,W,0.08,313.17,310314,,,A*75
!AIVDO,1,1,,,B39i>10006Tu;3QAl<s3gwt5kP06,0*08
!AIVDM,1,1,,A,11aucipP01rD10H56POt9?wj2L4V,0*09
$GPVTG,313.17,T,,M,0.08,N,0.1,K,A*03
!AIVDM,1,1,,A,14`WDl?001JCi9N57n@v19Oj08QH,0*43
!AIVDM,1,1,,B,15>h@F002ErD<=p4wlb0?h?h00Rn,0*00
!AIVDM,1,1,,A,B5T@f60006TwVv1AV0HJgwt5kP06,0*68
$GPGGA,152357.000,0856.1870,N,07933.3370,W,1,09,0.9,22.1,M,1.3,M,,0000*46
$GPGLL,0856.1870,N,07933.3370,W,152357.000,A,A*40
$GPGSA,A,3,18,12,25,31,22,24,29,14,21,,,,1.8,0.9,1.5*32
!AIVDM,1,1,,A,15EG2t8P00JCoi@53UjS`gwj0@Qh,0*78
$GPRMC,152357.000,A,0856.1870,N,07933.3370,W,0.08,309.40,310314,,,A*75
!AIVDO,1,1,,,B39i>10006Tu;31Al<s1KwtUkP06,0*26
$GPVTG,309.40,T,,M,0.08,N,0.1,K,A*0A
!AIVDM,1,1,,B,15?7P`0P00rCqM@52n<:>?wj2<1<,0*44
!AIVDM,1,1,,A,19NSAUh01wrDEa44suN@4@7l05qL,0*34
!AIVDM,1,1,,A,35BDU`0Oh2rCP2D5:Nq`m19l022P,0*18
!AIVDM,1,1,,A,15S`Op000crCfhf58IsM@bch0D4U,0*62
$GPGGA,152358.000,0856.1871,N,07933.3370,W,1,09,0.9,22.1,M,1.3,M,,0000*48
!AIVDM,1,1,,B,34S0dN5000rCiD657qa`P1DDR000,0*35
$GPGLL,0856.1871,N,07933.3370,W,152358.000,A,A*4E
!AIVDM,1,1,,B,17745J100urCr5<56?fdU:3l05qL,0*67
!AIVDM,1,1,,A,1000000P01rD03j56g<9WOwj08R@,0*67
$GPGSA,A,3,18,12,25,31,22,24,29,14,21,,,,1.8,0.9,1.5*32
!AIVDM,1,1,,A,15>nNj0P17rCPF`5:Q`TUOwl00S4,0*7B
$GPRMC,152358.000,A,0856.1871,N,07933.3370,W,0.11,310.55,310314,,,A*7F
!AIVDO,1,1,,,B39i>1000FTu;31Al<w27wu5kP06,0*4C
$GPVTG,310.55,T,,M,0.11,N,0.2,K,A*0D
!AIVDM,1,1,,B,B5RVdt00MNTvd?QARs1V3wu5oP06,0*57
$GPGGA,152359.000,0856.1871,N,07933.3370,W,1,09,0.9,22.0,M,1.3,M,,0000*48
$GPGLL,0856.1871,N,07933.3370,W,152359.000,A,A*4F
$GPGSA,A,3,18,12,25,31,22,24,29,14,21,,,,1.8,0.9,1.5*32
!AIVDM,1,1,,B,1HI5B`?OifrBe1f5>1J;tIgh0000,0*06
!AIVDM,1,1,,B,15B9j>0P00rCvIj52UNpcOv020R:,0*66
$GPGSV,3,1,10,21,56,181,40,18,53,043,43,22,39,349,40,25,35,126,48*71
!AIVDM,1,1,,A,1EE=m60P1IrCAmp5<F<eBOwd0000,0*0C
$GPGSV,3,2,10,14,35,321,36,31,31,219,44,12,23,085,48,24,11,034,36*72
!AIVDM,1,1,,B,8ETB;n0F0P000000000004Tkk2D000000DE7PD>00h0,2*6D
$GPGSV,3,3,10,29,06,159,43,27,03,265,31*7A
!AIVDM,1,1,,A,177ho2001nrCow84lq;PN0Il0D4V,0*63
!AIVDM,1,1,,B,H5T@f60hD`u>0@F1@T000000000,2*0A
!AIVDM,1,1,,A,15@Cc`0OhTrC``t59btd@9mn05qL,0*18
$GPRMC,152359.000,A,0856.1871,N,07933.3370,W,0.15,300.83,310314,,,A*70
!AIVDO,1,1,,,B39i>1000FTu;31Al<vt3wuUkP06,0*6F
!AIVDM,1,1,,A,3INSCkQ002JB4Uf5HKbaahSf0000,0*0C
$GPVTG,300.83,T,,M,0.15,N,0.3,K,A*02
!AIVDM,1,1,,A,3CiQIL1201rCvDj54kjU5:uF0000,0*69
!AIVDM,1,1,,A,35?P>b0PA7rC`gl59cadPr7n0Q10,0*2E
!AIVDM,1,1,,B,H5T@f64U71B=9>08?mool01H5230,0*78
!AIVDM,1,1,,A,D03Iuph1TNfp4dv9J<`N000,2*0D
!AIVDM,1,1,,A,D03Iu6P1`Nfp6<N02<`N00<LN00,2*5A
$GPGGA,152400.000,0856.1871,N,07933.3371,W,1,09,0.9,22.0,M,1.3,M,,0000*42
$GPGLL,0856.1871,N,07933.3371,W,152400.000,A,A*45
!AIVDM,2,1,5,A,5CIg3G000000Hq@:2204lDhUB22222222222221S1`415000000`<`0@0000,0*51
!AIVDM,2,2,5,A,00000000000,2*21
$GPGSA,A,3,18,12,25,31,22,24,29,14,21,,,,1.8,0.9,1.5*32
!AIVDM,1,1,,A,15RovJ0P03rCtvH56n9HJwv2280B,0*26
!AIVDM,1,1,,A,13AwlL0000JCT7R5:;V@59en0UqL,0*77
$GPRMC,152400.000,A,0856.1871,N,07933.3371,W,0.14,297.31,310314,,,A*7D
!AIVDO,1,1,,,B39i>1000FTu;2QAl<vqowP5kP06,0*12
$GPVTG,297.31,T,,M,0.14,N,0.3,K,A*05
!AIVDM,1,1,,A,14hwN60003rCwoF56a02N0L200SW,0*4C
!AIVDM,1,1,,B,15TB;n500crCfkt58Hme@JOn0L3w,0*22
!AIVDM,1,1,,A,403IupiupwgH0rC9065>=fW000S:,0*09
!AIVDM,1,1,,A,403Iu6QupwgH0rCk0d57rwW00H0K,0*4A
!AIVDM,1,1,,A,14VNgJ000:rCbeL59IgdEaqh0@0N,0*13
!AIVDM,1,1,,B,15AfoT?001rCpu>54FgJOc60280O,0*0C
!AIVDM,1,1,,B,403IupiupwgH1rC9065>=fW000S:,0*0B
$GPGGA,152401.000,0856.1872,N,07933.3371,W,1,09,0.9,22.0,M,1.3,M,,0000*40
!AIVDM,1,1,,A,1000Fo@P00rCt@N53f<E3?v20L4?,0*73
!AIVDM,1,1,,B,403Iu6QupwgH1rCk0d57rwW00H0l,0*6F
$GPGLL,0856.1872,N,07933.3371,W,152401.000,A,A*47
!AIVDM,1,1,,A,85S`Op0F0P0000000000021CQ4P000000>jq00000h0,2*3B
$GPGSA,A,3,18,12,25,31,22,24,29,14,21,,,,1.8,0.9,1.5*32
!AIVDM,1,1,,A,19NS<u001HrCAgn5<HIeC:b2080p,0*76
$GPRMC,152401.000,A,0856.1872,N,07933.3371,W,0.18,298.46,310314,,,A*7C
!AIVDO,1,1,,,B39i>1000FTu;2QAl=2rSwPUkP06,0*08
$GPVTG,298.46,T,,M,0.18,N,0.3,K,A*06
!AIVDM,1,1,,B,35BDU`0Oh2rCP2D5:Nq`c1<4011@,0*58
!AIVDM,1,1,,B,13nuv2002:rCh?T4m:FhSPL425qP,0*52
!AIVDM,1,1,,A,A03IupkAC4:dH0v9BvDP1cF6nud@NrP5wH5T,0*26
!AIVDM,1,1,,A,15AVTD001KrCfON58Jcn:Dr225qP,0*5B
!AIVDM,1,1,,A,15BUvr0P0SrC`Bj59dotVgv22D31,0*39
!AIVDM,1,1,,A,15>kSB8P00rC`W:59jpoQ?v22@1D,0*66
!AIVDM,1,1,,A,15QDvN0P00rC`Qt59jRnVOv22<2g,0*47
$GPGGA,152402.000,0856.1872,N,07933.3372,W,1,09,0.9,22.0,M,1.3,M,,0000*40
$GPGLL,0856.1872,N,07933.3372,W,152402.000,A,A*47
$GPGSA,A,3,18,12,25,31,22,24,29,14,21,,,,1.8,0.9,1.5*32
!AIVDM,1,1,,B,1775gb000TrC`S`59cbtBIp60H1Q,0*0E
$GPRMC,152402.000,A,0856.1872,N,07933.3372,W,0.15,289.73,310314,,,A*77
!AIVDO,1,1,,,B39i>1000FTu;21Al=2m7wQ5kP06,0*72
$GPVTG,289.73,T,,M,0.15,N,0.3,K,A*0D
!AIVDM,2,1,6,B,55NMBi400001L@KO7CDd58Dr0dt9V2222222221S1PE5557W07PPFCmH0S0@,0*00
!AIVDM,2,2,6,B,jp30H888880,2*48
!AIVDM,1,1,,A,15>h@F002ErD<>l4wma0>h>405qP,0*5A
$GPGGA,152403.000,0856.1872,N,07933.3372,W,1,09,0.9,21.9,M,1.3,M,,0000*4B
!AIVDM,1,1,,B,15Berf100QrCqon53g<R9RIn081w,0*3E
$GPGLL,0856.1872,N,07933.3372,W,152403.000,A,A*46
$GPGSA,A,3,18,12,25,31,22,24,29,14,21,,,,1.8,0.9,1.5*32
!AIVDM,1,1,,A,15QJeb000crCfS458LreArd62@23,0*19
$GPRMC,152403.000,A,0856.1872,N,07933.3372,W,0.15,299.70,310314,,,A*74
!AIVDO,1,1,,,B39i>1000FTu;21Al=2sGwQUkP06,0*7C
$GPVTG,299.70,T,,M,0.15,N,0.3,K,A*0F
!AIVDM,2,1,7,B,5EB?64400000PwS77<0<tp<E0<Ttp000000000092`E1At0Ht2T0CPC@@000,0*6F
!AIVDM,2,2,7,B,00000000000,2*20
!AIVDM,1,1,,B,85SNCR0F0P000000000000kP000000000DE7P3>00h0,2*08
!AIVDM,1,1,,B,15R=@2:P00rCplJ53r5Cpwv82D4W,0*6F
!AIVDM,2,1,8,A,5ERVdt000000h5FUP59P58Dt000000000000000j10822000000`<`0@0000,0*29
!AIVDM,2,2,8,A,00000000000,2*2C
!AIVDM,1,1,,A,15`OGN?006rD01856RqCSi282H2M,0*54
!AIVDM,1,1,,B,15NQaV?00GrCcQf59AV<Pr4:2H2P,0*07
$GPGGA,152404.000,0856.1872,N,07933.3373,W,1,09,0.9,21.9,M,1.3,M,,0000*4D
!AIVDM,1,1,,B,35R?dB0P@3rCc<l59FPum:<820w@,0*70
!AIVDM,1,1,,A,15>uP00P0@rCUAP5:5lKu?v820S=,0*19
$GPGLL,0856.1872,N,07933.3373,W,152404.000,A,A*40
$GPGSA,A,3,18,12,25,31,22,24,29,14,21,,,,1.8,0.9,1.5*32
!AIVDM,1,1,,A,15D>NJ0000rCp7253rwpU08820SQ,0*0E
$GPGSV,3,1,10,21,56,181,40,18,53,043,44,22,39,349,39,25,35,126,48*78
!AIVDM,2,1,9,A,5INSAeh2<R<87PUGJ20<58huA@61=@5:22222217H`fA@4wo0LS@CVPCRC33,0*11
!AIVDM,2,2,9,A,p8888888880,2*65
!AIVDM,1,1,,A,14a1Eb020IrCbS>59Ie<Cap80@2d,0*41
!AIVDM,1,1,,A,1;rtnP@P11JCrC256Qlk0wv8rSwE,0*41
!AIVDM,1,1,,B,35RVtT0P00rCl9T533IMswv82B`S,0*6F
$GPGSV,3,2,10,14,35,321,36,31,31,219,44,12,23,085,47,24,11,034,35*7E
$GPGSV,3,3,10,29,06,159,42,27,03,265,32*78
$GPRMC,152404.000,A,0856.1872,N,07933.3373,W,0.14,296.23,310314,,,A*7A
!AIVDO,1,1,,,B39i>1000FTu;1QAl=2q;wR5kP06,0*02
!AIVDM,1,1,,A,109t5aW000rCi@j57flWRc::282l,0*11
$GPVTG,296.23,T,,M,0.14,N,0.3,K,A*07
!AIVDM,1,1,,A,15BDU`0Oh2rCP205:Nq`rA@:082p,0*04
!AIVDM,1,1,,B,15QdFT?P00JCr6>54CEE@?v805qP,0*4D
!AIVDM,1,1,,B,35@eD@0P01rC``t59kF5HOv:001C,0*0B
$GPGGA,152405.000,0856.1873,N,07933.3373,W,1,09,0.9,21.9,M,1.3,M,,0000*4D
$GPGLL,0856.1873,N,07933.3373,W,152405.000,A,A*40
$GPGSA,A,3,18,12,25,31,22,24,29,14,21,,,,1.8,0.9,1.5*32
$GPRMC,152405.000,A,0856.1873,N,07933.3373,W,0.16,281.86,310314,,,A*71
!AIVDO,1,1,,,B39i>1000FTu;1QAl=6h;wRUkP06,0*7F
$GPVTG,281.86,T,,M,0.16,N,0.3,K,A*0C
!AIVDM,1,1,,B,15Bs:H8000JCpnh53r0CTP1p2l4F,0*7B
!AIVDM,2,1,0,A,A03IupkAC4:dH0N9C1Uh6Oiw0UDOw;;w6A;uoh8s3?di05<Mu``0;1Gug00I,0*02
!AIVDM,2,2,0,A,3gmP03`FwBH0:rbb,0*5F
!AIVDM,1,1,,A,15NMBi;P01rCfh:58C0R;?v<2D4F,0*03
!AIVDM,1,1,,A,15Q@a8001hJD8CR4u`:@`0P<0<4J,0*01
!AIVDM,1,1,,B,15TPq@0001rCfV:57oK1LGH<283a,0*1E
!AIVDM,1,1,,A,35Rbjb0001rC`TT59jE6BA6:001S,0*30
$GPGGA,152406.000,0856.1873,N,07933.3374,W,1,09,0.9,22.0,M,1.3,M,,0000*43
$GPGLL,0856.1873,N,07933.3374,W,152406.000,A,A*44
!AIVDM,1,1,,A,15?Jc<0001rCvw@53jm;aP6<0D4S,0*6B
$GPGSA,A,3,18,12,25,31,22,24,29,14,21,,,,1.8,0.9,1.5*32
$GPRMC,152406.000,A,0856.1873,N,07933.3374,W,0.20,280.47,310314,,,A*7C
!AIVDO,1,1,,,B39i>1000VTu;11Al=6gCwS5kP06,0*19
$GPVTG,280.47,T,,M,0.20,N,0.4,K,A*02
!AIVDM,1,1,,B,14`WDl?001JCi9`57nAv19N>05qP,0*0F
!AIVDM,1,1,,A,85BUvr0F0P00000000000333330000000DE7P7700h0,2*21
!AIVDM,1,1,,B,15NK0G0P01rCl4N57Aj:hwv>05qP,0*75
!AIVDM,1,1,,B,11aucipP01rD10B56POLO?v@2<4V,0*15
!AIVDM,1,1,,B,15SNCR8P0AJCUcp5:2CdIwv>25qP,0*31
!AIVDM,1,1,,A,15QK90?001JD13B54T<rIPap0h4F,0*48
!AIVDM,1,1,,B,1000000P01rD03f56g;nfOv<0<2R,0*28
$GPGGA,152407.000,0856.1873,N,07933.3375,W,1,09,0.9,22.0,M,1.3,M,,0000*43
$GPGLL,0856.1873,N,07933.3375,W,152407.000,A,A*44
$GPGSA,A,3,18,12,25,31,22,24,29,14,21,,,,1.8,0.9,1.5*32
!AIVDM,2,1,1,B,5INWt:P2>Uad7Pq7N20<52105A@tr22222222216D@H3I4wa0DPPC0ShH888,0*38
!AIVDM,2,2,1,B,88888888880,2*26
$GPRMC,152407.000,A,0856.1873,N,07933.3375,W,0.19,276.02,310314,,,A*7E
!AIVDO,1,1,,,B39i>1000FTu;0QAl=6dSwSUkP06,0*1B
$GPVTG,276.02,T,,M,0.19,N,0.3,K,A*07
!AIVDM,1,1,,A,1EANdJ000ArCUO`5:3Od<qf80000,0*4D
!AIVDM,1,1,,A,15?7P`0P00rCqM@52n<:>?v>20S0,0*70
!AIVDM,1,1,,A,11aucip000JCCIp54QkT23HB00S1,0*0D
!AIVDM,1,1,,A,15B9j>0P00rCvJ<52ULHROv@20S5,0*45
!AIVDM,1,1,,B,15S`Op000crCfgD58JJeBJb>05qP,0*12
!AIVDM,1,1,,B,1@00Fo@P00rCt@N53f<E3?v20000,0*77
!AIVDM,1,1,,A,B5E=q0000>Tulp1@uCRqwwT5oP06,0*67
$GPGGA,152408.000,0856.1873,N,07933.3375,W,1,09,0.9,22.0,M,1.3,M,,0000*4C
!AIVDM,1,1,,A,13nuv2002;rChA`4m;H@R@LB284w,0*35
$GPGLL,0856.1873,N,07933.3375,W,152408.000,A,A*4B
$GPGSA,A,3,18,12,25,31,22,24,29,14,21,,,,1.8,0.9,1.5*32
$GPRMC,152408.000,A,0856.1873,N,07933.3375,W,0.19,284.90,310314,,,A*77
!AIVDO,1,1,,,B39i>1000FTu;0QAl=6j7wT5kP06,0*16
!AIVDM,1,1,,B,35BDU`0Oh2rCP205:Nq`jADB01lP,0*16
$GPVTG,284.90,T,,M,0.19,N,0.3,K,A*01
!AIVDM,1,1,,B,19NSAUh020rDEaN4sw104@6B05qP,0*37
!AIVDM,1,1,,B,15>h@F002ErD<?R4wn`@=h>@085C,0*39
!AIVDM,1,1,,A,B4eHDB00:nTu=@QAiV793wTUoP06,0*2E
$GPGGA,152409.000,0856.1873,N,07933.3376,W,1,09,0.9,22.0,M,1.3,M,,0000*4E
!AIVDM,1,1,,A,17745J100urCr2456@?<Rb0@0<u4,0*10
$GPGLL,0856.1873,N,07933.3376,W,152409.000,A,A*49
!AIVDM,1,1,,B,33AwlL0000JCT7p5:;a:j9d@0P3C,0*21
!AIVDM,1,1,,B,15EG2t8P00JCoi<53UlAawvB05qP,0*46
$GPGSA,A,3,18,12,25,31,22,24,29,14,21,,,,1.8,0.9,1.5*32
$GPGSV,3,1,10,21,56,181,41,18,53,043,44,22,39,349,38,25,35,126,48*78
$GPGSV,3,2,10,14,35,321,37,31,32,219,45,12,23,085,47,24,11,034,36*7E
!AIVDM,1,1,,B,14VNgJ0009rCbdp59Il<cIp:0<2j,0*7A
$GPGSV,3,3,10,29,06,159,43,27,03,265,33*78
$GPRMC,152409.000,A,0856.1873,N,07933.3376,W,0.14,288.48,310314,,,A*71
!AIVDO,1,1,,,B39i>1000FTu;01Al=6lCwTUkP06,0*64
!AIVDM,1,1,,B,83AwlL0F0P0000000000042C3m4000000>iq00000h0,2*7D
$GPVTG,288.48,T,,M,0.14,N,0.3,K,A*05
$GPGGA,152410.000,0856.1874,N,07933.3376,W,1,09,0.9,22.0,M,1.3,M,,0000*41
!AIVDM,1,1,,B,15RovJ0P03rCtvH56n7`WwvF2H66,0*68
$GPGLL,0856.1874,N,07933.3376,W,152410.000,A,A*46
$GPGSA,A,3,18,12,25,31,22,24,29,14,21,,,,1.8,0.9,1.5*32
$GPRMC,152410.000,A,0856.1874,N,07933.3376,W,0.18,286.48,310314,,,A*7C
!AIVDO,1,1,,,B39i>1000FTu;01Al=:k3wU5kP06,0*7E
$GPVTG,286.48,T,,M,0.18,N,0.3,K,A*07
!AIVDM,1,1,,B,14hwN60P@3rCwoP56a0jOhFF086>,0*32
!AIVDM,1,1,,A,15TB;n500crCfjd58ICe@JPD0D3w,0*22
!AIVDM,1,1,,B,1000Fo@P00rCt@P53f<4SwvF086S,0*59
!AIVDM,1,1,,A,15AfoT?001rCpu:54Fgbjc8F25qP,0*2D
$GPGGA,152411.000,0856.1874,N,07933.3377,W,1,09,0.9,22.0,M,1.3,M,,0000*41
!AIVDM,1,1,,B,1;rtnP@P11JCrG456Qpk@gvFrKwF,0*59
$GPGLL,0856.1874,N,07933.3377,W,152411.000,A,A*46
$GPGSA,A,3,18,12,25,31,22,24,29,14,21,,,,1.8,0.9,1.5*32
$GPRMC,152411.000,A,0856.1874,N,07933.3377,W,0.20,284.85,310314,,,A*74
!AIVDO,1,1,,,B39i>1000VTu:wQAl=:j3wUUkP06,0*29
!AIVDM,1,1,,B,3ETb76?P4BrB8b25G0B=3gv>2000,0*06
$GPVTG,284.85,T,,M,0.20,N,0.4,K,A*08
!AIVDM,1,1,,B,15BUvr0P0TrC`@T59e:d:OvF2H6l,0*21
!AIVDM,1,1,,B,15ATk20001rCs3:53Jp:P@VB05qP,0*01
!AIVDM,1,1,,A,1DVNgJ0009rCbdp59Il<cIp:0000,0*5D
!AIVDM,1,1,,B,15AVTD001KrCfRP58Ii69TrF20S2,0*28
!AIVDM,1,1,,A,35BDU`0Oh2rCP205:No8LAHH0110,0*4E
!AIVDM,1,1,,B,15>kSB8P00rC`W859jqoQ?vF20Rf,0*23
!AIVDM,1,1,,B,1Ks49gPP01rB9dn5CH2Te?vEp000,0*35
!AIVDM,2,1,2,A,5EEG2t01iIrtPwKKCR0M8D5B0@T48hv22222221J1@j597;i070lRDm3hPC;,0*1A
!AIVDM,2,2,2,A,40CPC@H8880,2*42
$GPGGA,152412.000,0856.1874,N,07933.3377,W,1,09,0.9,22.1,M,1.3,M,,0000*43
$GPGLL,0856.1874,N,07933.3377,W,152412.000,A,A*45
$GPGSA,A,3,18,12,25,31,22,24,29,14,21,,,,1.8,0.9,1.5*32
$GPRMC,152412.000,A,0856.1874,N,07933.3377,W,0.17,283.90,310314,,,A*70
!AIVDO,1,1,,,B39i>1000FTu:wQAl=:iOwV5kP06,0*25
$GPVTG,283.90,T,,M,0.17,N,0.3,K,A*08
!AIVDM,1,1,,B,15QJeb000crCfQr58MD=BbdH20Rj,0*15
!AIVDM,1,1,,A,1775gb000TrC`QJ59cttFIpJ0<4L,0*27
!AIVDM,1,1,,A,144FV@?P00rCQUF5:P4QNgvJ287f,0*2F
!AIVDM,1,1,,B,15QDvN0P00rC`Qv59jSVk?vF287k,0*4B
$GPGGA,152413.000,0856.1874,N,07933.3378,W,1,09,0.9,22.1,M,1.3,M,,0000*4D
$GPGLL,0856.1874,N,07933.3378,W,152413.000,A,A*4B
!AIVDM,1,1,,B,109t5aW000rCi@f57flGS;:L20S<,0*18
$GPGSA,A,3,18,12,25,31,22,24,29,14,21,,,,1.8,0.9,1.5*32
!AIVDM,1,1,,A,84VNgJ0F0P0000000000042C3m0000000>jmJ0000h0,2*3B
$GPRMC,152413.000,A,0856.1874,N,07933.3378,W,0.19,292.50,310314,,,A*7C
!AIVDO,1,1,,,B39i>1000FTu:w1Al=:nowVUkP06,0*02
$GPVTG,292.50,T,,M,0.19,N,0.4,K,A*0D
!AIVDM,1,1,,B,13nuv2002;rChC24m<6PS@LL25qP,0*6F
!AIVDM,1,1,,A,A03IupkAC4:dH0v9C6PP1cF6nud@NrP5wH5T,0*73
!AIVDM,1,1,,A,15R=@2:P00rCplL53r5SewvL2D4W,0*1B
!AIVDM,1,1,,B,15D>NJ0000rCp7253rwpU08J25qP,0*59
!AIVDM,1,1,,B,15`OGN?007rD01d56RqCRi2N2@8G,0*75
!AIVDM,1,1,,A,15>h@F002ErD<@D4woVP<h>L05qP,0*23
$GPGGA,152414.000,0856.1875,N,07933.3379,W,1,09,0.9,22.1,M,1.3,M,,0000*4A
$GPGLL,0856.1875,N,07933.3379,W,152414.000,A,A*4C
$GPGSA,A,3,18,12,25,31,22,24,29,14,21,,,,1.8,0.9,1.5*32
$GPGSV,3,1,10,21,56,181,41,18,53,043,44,22,39,349,39,25,35,126,48*79
!AIVDM,1,1,,B,15BDU`0Oh2rCP205:No8`QJN088W,0*10
!AIVDM,1,1,,A,15Berf1u@OrCqrJ53gLiwBFF05qP,0*77
$GPGSV,3,2,10,14,35,321,37,31,32,219,45,12,23,085,48,24,11,034,36*71
$GPGSV,3,3,10,29,06,159,43,27,03,265,34*7F
$GPRMC,152414.000,A,0856.1875,N,07933.3379,W,0.15,290.61,310314,,,A*77
!AIVDO,1,1,,,B39i>1000FTu:vQAl=>mcwW5kP06,0*09
$GPVTG,290.61,T,,M,0.15,N,0.3,K,A*06
!AIVDM,2,1,3,B,A03IupkAC4:dH0N9C9=h6Oj305DOw;Ow6A;uph0s3?dn05<Mu`d3;1Guh08I,0*21
!AIVDM,2,2,3,B,3gmTwS`FwB`0:rbb,0*54
!AIVDM,1,1,,A,85R?dB0F0P000000000003DQFAD000000DE7P6100h0,2*18
!AIVDM,1,1,,A,15TPq@0001JCfU657oLQM7HN2@8l,0*30
!AIVDM,1,1,,A,15NQaV?00ArCcPR59AiLOb4N288n,0*47
!AIVDM,1,1,,A,15QdFT?P01JCr6N54CBmd?vL0<3<,0*67
$GPGGA,152415.000,0856.1875,N,07933.3379,W,1,09,0.9,22.1,M,1.3,M,,0000*4B
!AIVDM,1,1,,B,H;s@N=0MD48Tp40000000000000,2*01
$GPGLL,0856.1875,N,07933.3379,W,152415.000,A,A*4D
!AIVDM,1,1,,A,15RVtT0P00rCl9R533KMOgvN2<1L,0*00
$GPGSA,A,3,18,12,25,31,22,24,29,14,21,,,,1.8,0.9,1.5*32
!AIVDM,1,1,,B,1ETB;n500crCfjd58ICe@JPD0000,0*61
$GPRMC,152415.000,A,0856.1875,N,07933.3379,W,0.15,300.62,310314,,,A*7D
!AIVDO,1,1,,,B39i>1000FTu:vQAl=>sswWUkP06,0*67
$GPVTG,300.62,T,,M,0.15,N,0.3,K,A*0D
!AIVDM,1,1,,A,3EQUTv0OiorB8s05Bv1VrmTH0000,0*21
!AIVDM,1,1,,B,19NWtEP01erDNtN4sTcnbmBP25qP,0*56
!AIVDM,1,1,,B,1INSAeh00vrB;gT5BLHirA<J0000,0*1D
!AIVDM,1,1,,B,15?Jc<0001rCvwl53jqcWh8N089C,0*13
!AIVDM,1,1,,A,1G75gb000TrC`QJ59cttFIpJ0000,0*23
!AIVDM,1,1,,A,89NS<u0F0P000000000004hCPjP000000>io20000h0,2*70
